DestinationID	DestinationLat	DestinationLng	Name	VenueId	Lat	Lng	Distance	Category	CheckinsCount	UsersCount	TipCount	Rating
1	33.69544834	-117.7791338	Heritage Park	4b5b26e5f964a520d3e628e3	33.70094614	-117.777905	622	Park	2868	908	6	8.5
1	33.69544834	-117.7791338	A & J Restaurant	4a6d1ce6f964a5208cd21fe3	33.68816023	-117.7714287	1080	Taiwanese Restaurant	4042	1721	39	8.8
1	33.69544834	-117.7791338	East Coast Bagel Co	4ab08287f964a520746720e3	33.70512253	-117.785113	1210	Bagel Shop	1082	535	18	8.9
1	33.69544834	-117.7791338	Taiko Japanese Restaurant	4af3800cf964a5202fee21e3	33.68850807	-117.7714693	1049	Japanese Restaurant	3759	1525	41	8.5
1	33.69544834	-117.7791338	101 Noodle Express	4de13f1ed22d2a7955832587	33.689719	-117.769355	1107	Chinese Restaurant	1778	752	18	8.5
1	33.69544834	-117.7791338	Trader Joe's	4b035955f964a520d74e22e3	33.70608943	-117.7883238	1458	Grocery Store	5451	1442	13	9.3
1	33.69544834	-117.7791338	Santouka	4eece9960e01899eff174bba	33.70686105	-117.7834531	1331	Noodle House	2267	959	21	8.8
1	33.69544834	-117.7791338	Chong Qing Mei Wei Chuan Cai	4b79fd49f964a520f81d2fe3	33.68986033	-117.7692705	1105	Chinese Restaurant	1181	561	13	8.4
1	33.69544834	-117.7791338	Woollett Aquatic Center	4b760b00f964a520c1382ee3	33.70062502	-117.7809911	601	Pool	2029	515	8	7.9
1	33.69544834	-117.7791338	The Habit Burger Grill	50943653e4b0578aae0a1dc3	33.70469889	-117.7869584	1259	Burger Joint	1973	870	28	8.5
1	33.69544834	-117.7791338	7 Leaves Cafe	56e45534498e59585adfe332	33.687524	-117.771378	1137	Coffee Shop	615	244	4	8.4
1	33.69544834	-117.7791338	Annapoorna Restaurant	4bec52c5976ac9281dd8600b	33.703985	-117.785749	1130	Indian Restaurant	1491	877	27	8.4
1	33.69544834	-117.7791338	Yogurtland	4ac18960f964a5206d9720e3	33.6885915	-117.7714235	1045	Frozen Yogurt Shop	2765	1278	23	8.1
1	33.69544834	-117.7791338	Bruxie	51d70504498e004fb9d11d99	33.70565841	-117.785623	1285	Sandwich Place	3766	1956	44	8.4
1	33.69544834	-117.7791338	honeymee	56133dc1498ed30d2084f448	33.68924795	-117.7702039	1077	Ice Cream Shop	438	240	6	8.1
1	33.69544834	-117.7791338	Bambu Desserts & Drinks	52d5dce0498e60e34d013f3e	33.68906175	-117.7715552	999	Dessert Shop	710	341	9	8
1	33.69544834	-117.7791338	Stacks Pancake House	574b0878498e865feb25980b	33.70648287	-117.7876097	1457	Breakfast Spot	235	169	3	8.5
1	33.69544834	-117.7791338	Daiso Japan	4f88c544e4b0ab0c1a774eba	33.706246	-117.784076	1286	Department Store	3693	1757	24	8.2
1	33.69544834	-117.7791338	Curry House	4a70f072f964a520d3d81fe3	33.70617422	-117.7867573	1387	Japanese Restaurant	3803	1475	44	8.3
1	33.69544834	-117.7791338	Essence Nail Studio	4e9b4f244901d3b0b746e339	33.69578744	-117.7645752	1348	Nail Salon	351	149	3	8.2
1	33.69544834	-117.7791338	EMC Seafood & Raw Bar	566f0a16498ef3bcc80fe955	33.70630966	-117.7856115	1349	Seafood Restaurant	526	335	2	8.2
1	33.69544834	-117.7791338	Total Woman Gym & Day Spa	4b7719e5f964a5207f7d2ee3	33.70637713	-117.7840485	1298	Gym	2460	114	11	8.2
1	33.69544834	-117.7791338	Burntzilla	54de6607498e70bf7dc87e8e	33.70607604	-117.787047	1391	Burger Joint	828	490	12	8.2
1	33.69544834	-117.7791338	Dunkin' Donuts	56cda663cd109b7968a57b35	33.68088783	-117.777968	1624	Donut Shop	1046	422	5	8.4
1	33.69544834	-117.7791338	Seoul Haus	5186c7bd498e1d5b614bfe6b	33.704778	-117.772831	1191	Korean Restaurant	213	132	5	7.9
1	33.69544834	-117.7791338	Starbucks Coffee	4e4dd5c2bd41b76bef93eaf8	33.6959224	-117.7778935	126	Coffee Shop	51	22	0	7.3
1	33.69544834	-117.7791338	TOGO'S Sandwiches	4ba40499f964a520447838e3	33.70695785	-117.7841685	1363	Sandwich Place	620	224	2	7.9
1	33.69544834	-117.7791338	All That Barbecue	50919a81e4b0504e34f1e128	33.69687305	-117.7981497	1768	Korean Restaurant	2522	1372	28	8.3
1	33.69544834	-117.7791338	Shik Do Rak	4a61f15ff964a520aec21fe3	33.68780408	-117.7715385	1104	Korean Restaurant	3744	1668	46	7.7
1	33.69544834	-117.7791338	Lovely Nails	4bec9fdcd5510f47d8cbcc6c	33.69593697	-117.799437	1881	Spa	79	48	9	8.3
1	33.69544834	-117.7791338	Al Amir Bakery	5626c266498e92d5daed80f3	33.69572687	-117.7644722	1358	Bakery	400	211	1	7.8
1	33.69544834	-117.7791338	Tomikawa Sushi Bar Restaurant	4bbe3e2579eaef3bece2aec3	33.69549895	-117.764892	1319	Sushi Restaurant	1501	712	18	7.8
1	33.69544834	-117.7791338	Caspian	4b5bb78cf964a520d91129e3	33.70842945	-117.7824225	1476	Persian Restaurant	1756	1274	33	7.9
1	33.69544834	-117.7791338	Boiling Point	4ea223379adff634398b96f3	33.707482	-117.782503	1375	Chinese Restaurant	5856	1787	69	7.8
1	33.69544834	-117.7791338	Yogurtland	54eca658498e173028d9eeab	33.6885915	-117.7714235	1045	Frozen Yogurt Shop	13	10	0	7.6
1	33.69544834	-117.7791338	Bikram Yoga Irvine	4b5261cef964a5208f7a27e3	33.69428049	-117.767601	1076	Yoga Studio	1073	168	10	7.6
1	33.69544834	-117.7791338	Mitsuwa Marketplace	4e2ef3331f6ed9df901ae171	33.70679452	-117.7833992	1323	Supermarket	5419	1959	27	7.7
1	33.69544834	-117.7791338	Harvard Athletic Park	4b5e5da8f964a520808b29e3	33.70851645	-117.7988539	2334	Field	3446	663	4	8.8
1	33.69544834	-117.7791338	Mochilato	4a67f326f964a52047ca1fe3	33.70599125	-117.7840483	1258	Dessert Shop	3507	2051	32	7.7
1	33.69544834	-117.7791338	Northwood Community Park	4bc7b8b215a7ef3b72097ada	33.71146089	-117.7683487	2043	Park	522	254	4	8.3
1	33.69544834	-117.7791338	Mokkoji Shabu Shabu Bar	500789c1e4b05eac5aed7cf3	33.69631048	-117.7627887	1516	Japanese Restaurant	1302	610	9	7.8
1	33.69544834	-117.7791338	Wendy's	4af5e043f964a52031fe21e3	33.70581567	-117.786127	1323	Fast Food Restaurant	1550	698	12	7.6
1	33.69544834	-117.7791338	Sam Woo Seafood Restaurant	50ca02c4245f2d4aa8c2c150	33.6959488	-117.798144	1761	Chinese Restaurant	5390	2398	42	7.9
1	33.69544834	-117.7791338	Yogurtland	4b6f2313f964a52085df2ce3	33.71170596	-117.7592958	2578	Frozen Yogurt Shop	1391	490	14	8.8
1	33.69544834	-117.7791338	BevMo!	4b303c92f964a5201ff824e3	33.69676796	-117.8005943	1993	Liquor Store	2033	971	8	8
1	33.69544834	-117.7791338	Chef Chen	4a63966ff964a52062c51fe3	33.68967293	-117.7693851	1108	Chinese Restaurant	849	381	5	7.4
1	33.69544834	-117.7791338	CorePower Yoga	4dbaef244df044e524bd5af0	33.6774914	-117.7994219	2743	Yoga Studio	2842	341	14	9
1	33.69544834	-117.7791338	Zion Market - Irvine	4aff3fb5f964a520713622e3	33.71256942	-117.7608075	2552	Grocery Store	2808	865	16	8.5
1	33.69544834	-117.7791338	Smith Farms Certified Organic	4c1544367f7f2d7f2a37e268	33.7024803	-117.7566101	2228	Farmers Market	223	92	5	8.1
1	33.69544834	-117.7791338	Starbucks	4bde00906198c9b6829112ff	33.70637027	-117.7881421	1474	Coffee Shop	4256	1128	12	7.5
2	34.15527598	-118.529685	El Caballero Country Club	4aad50faf964a520a35f20e3	34.15996041	-118.5328901	599	Golf Course	1430	306	4	8.2
2	34.15527598	-118.529685	NARA Mediterranean Bistro and Lounge	5222b94911d2fdf81f37fe08	34.164131	-118.5243	1103	Middle Eastern Restaurant	579	330	11	8.6
2	34.15527598	-118.529685	Wanderlust Creamery	4e4e08e9bd4101d0d7a0b570	34.1693306	-118.5364473	1683	Ice Cream Shop	473	253	9	9.1
2	34.15527598	-118.529685	The Carving Board	4fbdacfbe4b0874e96dd4cae	34.17003	-118.538633	1837	Sandwich Place	1229	551	25	9.3
2	34.15527598	-118.529685	Starbucks	4b53b202f964a52029a827e3	34.168978	-118.534406	1586	Coffee Shop	683	175	3	8.6
2	34.15527598	-118.529685	The Nook Restaurant	54f78380498e90b8a31c53ec	34.16032406	-118.5104046	1862	American Restaurant	256	153	6	8.8
2	34.15527598	-118.529685	Super Wok	4c1adf3ab9f876b0e2777946	34.16944205	-118.5356606	1670	Chinese Restaurant	760	259	9	8.4
2	34.15527598	-118.529685	More Than Waffles	4af5ba68f964a520fdfb21e3	34.15988725	-118.5077566	2084	Breakfast Spot	4198	2328	79	9.2
2	34.15527598	-118.529685	Versailles	3fd66200f964a5208cee1ee3	34.16099252	-118.5121663	1734	Cuban Restaurant	2455	1501	43	8.5
2	34.15527598	-118.529685	Vino	4a00f57ef964a520c9701fe3	34.16479655	-118.5259527	1114	Tapas Restaurant	1060	676	19	7.9
2	34.15527598	-118.529685	Dark Horse Tavern	552b2ef8498e8b2e61afe878	34.17009783	-118.5361566	1754	Bar	234	110	1	8.4
2	34.15527598	-118.529685	Uncle Bernie's Deli	4d98a674e07ea35d6ed9f602	34.16240573	-118.516954	1416	Deli / Bodega	834	294	12	8.1
2	34.15527598	-118.529685	Tarzana Armenian Deli And Grocery	4bb5171a1344b713abd29b04	34.16963	-118.538646	1798	Deli / Bodega	510	225	12	8.5
2	34.15527598	-118.529685	CorePower Yoga	514e268ae4b020b3af99c0c2	34.160796	-118.50792	2096	Yoga Studio	1115	119	12	8.8
2	34.15527598	-118.529685	Coral Tree Cafe	4a496132f964a5203eab1fe3	34.16179966	-118.5140022	1616	Breakfast Spot	3508	1496	53	8.2
2	34.15527598	-118.529685	Braemar Country Club	4b8095cbf964a520d57e30e3	34.14300276	-118.542336	1795	General Entertainment	2656	656	11	8.3
2	34.15527598	-118.529685	The Habit Burger Grill	4a5259c7f964a5208cb11fe3	34.16025774	-118.5065847	2198	Burger Joint	1951	784	16	8.8
2	34.15527598	-118.529685	BevMo!	4cb5b8a21b0af04d3b29cb25	34.16467227	-118.5236889	1182	Liquor Store	711	373	4	7.8
2	34.15527598	-118.529685	YogaWorks Tarzana	4cba1d6d43ec6dcb6e2ea231	34.17036712	-118.5404618	1951	Yoga Studio	2910	235	11	8.4
2	34.15527598	-118.529685	Ubatuba Acai	51e4e6caccdadac7be1aa46e	34.170532	-118.539706	1932	Brazilian Restaurant	547	207	13	8.4
2	34.15527598	-118.529685	Cici's Cafe	4a917d31f964a520641a20e3	34.1721405	-118.5454142	2371	Breakfast Spot	5472	2781	121	9.1
2	34.15527598	-118.529685	VIP's Cafe	4b33baa3f964a520f11d25e3	34.16749462	-118.5323086	1381	Breakfast Spot	1572	451	24	7.9
2	34.15527598	-118.529685	Shisha Cafe Lounge	51ea3195498efab8d86ec7f2	34.164497	-118.524747	1122	Hookah Bar	268	169	5	7.8
2	34.15527598	-118.529685	Aroma Bakery Cafe	49e21354f964a520ef611fe3	34.16522607	-118.5259577	1159	Bakery	1991	1003	25	7.7
2	34.15527598	-118.529685	The Stand	49bdcdabf964a5209b541fe3	34.15975889	-118.503745	2441	Hot Dog Joint	4233	1427	58	9
2	34.15527598	-118.529685	Caballero Canyon Trail Access	4baa7ebbf964a520ef6e3ae3	34.14258627	-118.5408425	1746	Trail	448	198	5	8.1
2	34.15527598	-118.529685	Okumura Restaurant	508aef87e4b0167a9ce7a83d	34.16079113	-118.510205	1896	Japanese Restaurant	354	215	9	8.2
2	34.15527598	-118.529685	Mulberry Street Pizzeria Encino	4a711e65f964a52023d91fe3	34.15985019	-118.5047143	2355	Pizza Place	1060	522	29	8.7
2	34.15527598	-118.529685	Anarbagh	4bea25b762c0c928cd98e0d4	34.16025568	-118.5103369	1866	Indian Restaurant	815	327	9	8.1
2	34.15527598	-118.529685	Kushiyu	44eef75af964a520e3371fe3	34.171237	-118.541443	2080	Japanese Restaurant	1493	685	30	8.3
2	34.15527598	-118.529685	Hummus Bar & Grill	4b0d7869f964a520ff4823e3	34.17161711	-118.5419427	2140	Middle Eastern Restaurant	1585	940	36	8.3
2	34.15527598	-118.529685	Yogurtland	4c45200d2d3ec9b60cee2fae	34.1601287	-118.5077818	2088	Frozen Yogurt Shop	1965	861	13	8.3
2	34.15527598	-118.529685	The Surly Goat Encino	56e242f3498e5021b323a395	34.1612999	-118.5110773	1840	Beer Bar	310	99	3	8
2	34.15527598	-118.529685	Philly's Best	4dddd065d4c01aeee8f0621e	34.16009144	-118.5077995	2086	Sandwich Place	1130	372	21	8.2
2	34.15527598	-118.529685	Equinox Encino	4fd4d679e4b02bec7339ffbd	34.158842	-118.501403	2635	Gym / Fitness Center	3175	206	9	8.9
2	34.15527598	-118.529685	Whole Foods Market	4be8b9519a54a593e5610a11	34.17065197	-118.5411275	2010	Grocery Store	9255	1707	46	8.1
2	34.15527598	-118.529685	Ralphs	4ba7f0e1f964a52080c039e3	34.1627578	-118.5212885	1136	Supermarket	3620	821	7	7.6
2	34.15527598	-118.529685	California Pizza Kitchen	4a6a8659f964a520adcd1fe3	34.17143527	-118.5433278	2194	Pizza Place	2474	1104	24	8.2
2	34.15527598	-118.529685	The Spot	44d76457f964a5206a361fe3	34.15980292	-118.5078478	2073	Hookah Bar	8080	2222	53	8.1
2	34.15527598	-118.529685	Bea's Bakery	4ba53f4df964a52043f138e3	34.16970882	-118.535022	1680	Bakery	902	397	21	7.8
2	34.15527598	-118.529685	Dunkin' Donuts	5576dbfd498ed29e0795b50c	34.15990053	-118.5009054	2700	Donut Shop	1443	476	16	8.7
2	34.15527598	-118.529685	Jamba Juice Encino Oaks	4ae88780f964a52026b021e3	34.16089864	-118.5111841	1815	Juice Bar	1538	553	10	7.9
2	34.15527598	-118.529685	The Coffee Bean & Tea Leaf	4b10a243f964a520177423e3	34.16921974	-118.5363252	1668	Coffee Shop	2367	919	23	7.7
2	34.15527598	-118.529685	Chop Stop	4e3860991838d056d27c54ce	34.160658	-118.511091	1814	Salad Place	938	394	16	7.8
2	34.15527598	-118.529685	Maui Sugar Mill Saloon	3fd66200f964a52090f01ee3	34.168661	-118.5329103	1519	Music Venue	1033	556	11	7.6
2	34.15527598	-118.529685	Petco	4b58de08f964a520bd6f28e3	34.16434355	-118.5228107	1191	Pet Store	795	333	4	7.5
2	34.15527598	-118.529685	Cho Cho San	4ab30f22f964a520656d20e3	34.172169	-118.54765	2504	Sushi Restaurant	1165	487	21	8.3
2	34.15527598	-118.529685	Starbucks	4aa30a0ef964a5201b4320e3	34.160776	-118.510383	1880	Coffee Shop	5278	1163	21	7.8
2	34.15527598	-118.529685	Trader Joe's	4ab6c4a8f964a520fc7820e3	34.17194249	-118.5177344	2157	Grocery Store	5145	1314	27	8
2	34.15527598	-118.529685	The Bar Method Encino	4ddfd404b0fbefa198ced92e	34.16116264	-118.5085287	2056	Yoga Studio	725	84	3	7.9
3	33.61294159	-117.8565568	Roger's Gardens	4b2d30cdf964a52096d024e3	33.61271716	-117.8664076	913	Flower Shop	2858	1392	21	9.3
3	33.61294159	-117.8565568	Spyglass Hills Park	4bc6198b6c26b713104decf3	33.61237705	-117.8469317	894	Park	296	75	0	8.5
3	33.61294159	-117.8565568	Gelson's Market	4c3baabb62f1c928cce78f53	33.61162919	-117.8637064	678	Grocery Store	1681	473	7	8.2
3	33.61294159	-117.8565568	Big Canyon Country Club	4b16f29df964a520fabf23e3	33.61992993	-117.8697727	1451	Golf Course	1038	433	2	8.8
3	33.61294159	-117.8565568	Whole Foods Market	50462b60e4b0bf1605674c63	33.61648982	-117.873624	1630	Grocery Store	5393	1797	44	9.3
3	33.61294159	-117.8565568	Fashion Island	4a7b6e55f964a52003eb1fe3	33.61614765	-117.8754209	1784	Shopping Mall	57643	22502	135	9.4
3	33.61294159	-117.8565568	R+D Kitchen	4bf5f746004ed13ae7c541a0	33.61748457	-117.8747056	1756	American Restaurant	4576	2588	80	9.1
3	33.61294159	-117.8565568	Starbucks	55b42978498e8379ca4302e0	33.61501975	-117.8749508	1720	Coffee Shop	850	365	2	8.9
3	33.61294159	-117.8565568	Fleming's Prime Steakhouse & Wine Bar	4adfb846f964a520f77c21e3	33.61529465	-117.8732406	1568	Steakhouse	3035	2051	34	8.6
3	33.61294159	-117.8565568	Sprinkles Cupcakes	4ab5890ff964a5203e7520e3	33.60623808	-117.8746104	1832	Cupcake Shop	8222	4739	76	9.1
3	33.61294159	-117.8565568	Bristol Farms Newport Beach	4af74ea9f964a520360822e3	33.60613038	-117.8735363	1747	Grocery Store	2502	1106	13	8.9
3	33.61294159	-117.8565568	Gulfstream	4b36c98ef964a520693c25e3	33.604945	-117.874059	1850	Seafood Restaurant	3767	2231	54	9
3	33.61294159	-117.8565568	LUSH Cosmetics	4efc9ae6e300d0dc30e175ad	33.61611272	-117.8755754	1798	Cosmetics Shop	799	325	5	8.9
3	33.61294159	-117.8565568	Apple Fashion Island	4a8449d5f964a52030fc1fe3	33.614905	-117.876865	1895	Electronics Store	8419	3273	43	8.9
3	33.61294159	-117.8565568	Fig & Olive	52afb53f498ee75d7a5ac866	33.61322374	-117.8748372	1694	Mediterranean Restaurant	2043	1510	26	8.8
3	33.61294159	-117.8565568	Sprinkles Ice Cream	515601fdf31c2f3feba95877	33.60634531	-117.8747392	1838	Ice Cream Shop	2669	1717	35	8.8
3	33.61294159	-117.8565568	hopdoddy	563513c9498e29329eaeb50b	33.61513	-117.875008	1727	Burger Joint	520	344	13	8.6
3	33.61294159	-117.8565568	Le Pain Quotidien	4e93a0c4775b564ca2dc4593	33.61461929	-117.8761768	1828	Bakery	3125	1482	46	8.7
3	33.61294159	-117.8565568	The Summer House	4c15b8c0a1010f4737844e18	33.60158807	-117.8726683	1956	American Restaurant	1041	662	21	8.9
3	33.61294159	-117.8565568	Bamboo Bistro	4ae5072bf964a52017a021e3	33.603408	-117.872749	1838	Thai Restaurant	1240	610	31	8.7
3	33.61294159	-117.8565568	"Koi Pond, Fashion Island"	4bc36b40461576b07c9c7e32	33.61581096	-117.8752863	1765	Garden	1366	753	7	8.6
3	33.61294159	-117.8565568	Avila's El Ranchito	4b78be55f964a52070e02ee3	33.60346671	-117.8738243	1917	Mexican Restaurant	1211	800	9	8.8
3	33.61294159	-117.8565568	Tommy Bahama's Island Grille	4a7355fef964a5202edc1fe3	33.60536127	-117.8745568	1869	American Restaurant	2398	1534	39	8.6
3	33.61294159	-117.8565568	True Food Kitchen	4c5723c07329c928602f8e80	33.61492507	-117.8734237	1579	New American Restaurant	7825	4281	113	8.3
3	33.61294159	-117.8565568	Roy's	4c7ee9c18e649521d69c12bd	33.61489073	-117.8731605	1554	Asian Restaurant	3544	1432	30	8.4
3	33.61294159	-117.8565568	Red O	528aeab311d2a45da14884a6	33.61306734	-117.8754095	1747	Mexican Restaurant	1444	1075	35	8.4
3	33.61294159	-117.8565568	Toni & Guy Hairdressing	4af20b00f964a5206be521e3	33.61495415	-117.877275	1933	Salon / Barbershop	626	286	14	8.5
3	33.61294159	-117.8565568	YogaWorks Newport Beach	4d80e07544aedcb34f112f29	33.61157464	-117.8741086	1634	Yoga Studio	576	136	5	8.2
3	33.61294159	-117.8565568	B.CANDY	4d93d2708b4a60fcd899f568	33.59815096	-117.8715259	2153	Candy Store	302	195	13	8.8
3	33.61294159	-117.8565568	Bandera	458278cdf964a520783f1fe3	33.59658143	-117.8714208	2283	American Restaurant	2759	1491	51	9.1
3	33.61294159	-117.8565568	Rose Bakery Cafe	4b3e6696f964a5208a9c25e3	33.59486	-117.8686506	2304	Café	3109	1663	59	9.1
3	33.61294159	-117.8565568	Port Theater	4f9df206e4b0b38d30ba722f	33.5995959	-117.8725367	2098	Multiplex	289	202	8	8.7
3	33.61294159	-117.8565568	CUCINA enoteca Newport Beach	53c1c416498e1bb9bed78238	33.61550279	-117.8778645	1995	Italian Restaurant	599	441	6	8.6
3	33.61294159	-117.8565568	Edwards Big Newport 6 & RPX	4bf777f2b182c9b697e4755a	33.61269479	-117.8733463	1556	Movie Theater	4492	1908	15	8.1
3	33.61294159	-117.8565568	Pain du Monde	4bf882c55efe2d7f30f56a34	33.617278	-117.874816	1760	Café	1834	1067	32	8.2
3	33.61294159	-117.8565568	Wild Strawberry Cafe	4d963f9aaf3d236a48a405c7	33.61113093	-117.8741162	1640	Café	468	135	4	8.1
3	33.61294159	-117.8565568	Pinkberry	4b5ba17cf964a5204e0c29e3	33.61634179	-117.8763745	1875	Frozen Yogurt Shop	1231	704	3	8.3
3	33.61294159	-117.8565568	Five Crowns	4a884cadf964a520ce0520e3	33.59367	-117.867	2353	Steakhouse	1613	989	19	9
3	33.61294159	-117.8565568	Pavilions	4b6c9156f964a520b5432ce3	33.62679604	-117.8494328	1677	Grocery Store	1568	364	1	8.1
3	33.61294159	-117.8565568	Victoria's Secret PINK	4b9af511f964a520cde635e3	33.61521808	-117.8764167	1858	Lingerie Store	1467	617	3	8.2
3	33.61294159	-117.8565568	Yard House	4bf47579ff90c9b6c44a5528	33.61714779	-117.8763056	1889	American Restaurant	6341	4039	61	8.3
3	33.61294159	-117.8565568	The Place	4b36bbb2f964a520863b25e3	33.599954	-117.8721167	2042	American Restaurant	1052	365	10	8.5
3	33.61294159	-117.8565568	SideDoor	4b54d111f964a520e7cd27e3	33.59379191	-117.8670429	2342	Gastropub	3223	1398	33	9
3	33.61294159	-117.8565568	Zinc Cafe and Market	4b58cf3af964a5204c6c28e3	33.59704392	-117.8709687	2217	Vegetarian / Vegan Restaurant	1549	782	12	8.7
3	33.61294159	-117.8565568	Island Cinema	49f37e5df964a520a96a1fe3	33.6163307	-117.876372	1875	Movie Theater	3349	1771	28	8.3
3	33.61294159	-117.8565568	Christopher & Co. Salon	4bca1926511f9521da06afc7	33.59519382	-117.8697943	2325	Cosmetics Shop	316	95	12	8.8
3	33.61294159	-117.8565568	Muldoon's Irish Pub	4a789e0af964a5200be61fe3	33.61235582	-117.8747113	1684	Pub	2967	1675	43	8.1
3	33.61294159	-117.8565568	Island Hotel Newport Beach	4aecc4c2f964a5200fcb21e3	33.6198645	-117.8750661	1880	Hotel	4713	2393	29	8.3
3	33.61294159	-117.8565568	Studio Four Salon	4b520980f964a5200f6327e3	33.61137827	-117.8721075	1452	Cosmetics Shop	116	41	10	7.9
3	33.61294159	-117.8565568	The Cheesecake Factory	4a9dc390f964a5204d3920e3	33.61547703	-117.877593	1970	American Restaurant	5628	3675	48	8.3
4	33.78620421	-118.1406484	Starbucks	4b9f8c97f964a520942a37e3	33.787807	-118.138834	244	Coffee Shop	4380	1134	17	8.4
4	33.78620421	-118.1406484	In-N-Out Burger	4ad40916f964a52030e720e3	33.79115045	-118.140084	553	Burger Joint	8995	4005	62	9.2
4	33.78620421	-118.1406484	Frostbites Crepes & Frozen Delights	531a3dec498ec16329ddf363	33.79068861	-118.1399919	502	Creperie	244	157	9	8.5
4	33.78620421	-118.1406484	CVS/ Pharmacy 24hr	53223c94498eaa0bb098c66f	33.79026805	-118.1412032	455	Pharmacy	260	106	1	8.3
4	33.78620421	-118.1406484	Long Beach Playhouse	4bbd6f7f8a4fb7137d0e3d9d	33.78278566	-118.1351709	633	Theater	1684	463	4	8.6
4	33.78620421	-118.1406484	Sushi Studio	4af5e4aff964a5206cfe21e3	33.78517697	-118.135472	492	Sushi Restaurant	4050	1672	49	8.2
4	33.78620421	-118.1406484	The Crooked Duck	4e49c2d745dd81ecad8577f3	33.78382885	-118.1345348	624	American Restaurant	1948	1115	42	8.3
4	33.78620421	-118.1406484	Centinela Feed and Pet Supplies	4aecdac6f964a520cccb21e3	33.78651958	-118.1392776	131	Pet Store	1161	358	6	7.7
4	33.78620421	-118.1406484	Ralphs	4bed83283372c92893bc1114	33.79202844	-118.1415746	653	Supermarket	4431	1008	10	8.2
4	33.78620421	-118.1406484	Casa Sanchez	4b67b2eff964a5203b5b2be3	33.78245014	-118.1461344	657	Mexican Restaurant	525	280	11	8.2
4	33.78620421	-118.1406484	The Halal Guys	56496a63498e83af91b1bd86	33.79037063	-118.1384262	507	Halal Restaurant	1067	587	13	7.9
4	33.78620421	-118.1406484	Jersey Mike's Subs	503ff6d7e4b068ce7c2399f6	33.79040371	-118.1401136	470	Deli / Bodega	792	345	9	7.9
4	33.78620421	-118.1406484	Wok & Roll	4b9aeb51f964a5201de335e3	33.78648827	-118.138602	191	Chinese Restaurant	590	219	15	7.6
4	33.78620421	-118.1406484	Hole Mole	4ae12074f964a5205a8521e3	33.7838379	-118.1337011	694	Mexican Restaurant	2415	1033	27	8.1
4	33.78620421	-118.1406484	Daiso Japan	551b1392498ee681e9613b6a	33.79180766	-118.1409747	624	Discount Store	248	123	2	8
4	33.78620421	-118.1406484	GameStop	4b92e420f964a520c92434e3	33.79177272	-118.1380071	666	Video Game Store	502	242	4	8
4	33.78620421	-118.1406484	Working Class Kitchen	54cd537c498e8adc2f144af8	33.783159	-118.153391	1226	Deli / Bodega	271	126	8	9.1
4	33.78620421	-118.1406484	The MarketPlace Grill & Cafe	51c6551c498ebaa35b995b5f	33.79246323	-118.1383176	729	Café	1414	611	30	8
4	33.78620421	-118.1406484	Hiccups	51550c62e4b0f9428ed31090	33.79240954	-118.142186	705	Vietnamese Restaurant	1562	573	30	8
4	33.78620421	-118.1406484	Los Compadres	4ae65de5f964a520b4a621e3	33.782722	-118.1539735	1292	Mexican Restaurant	4148	1754	65	9.2
4	33.78620421	-118.1406484	Roundin 3rd	4f6d4b87e4b03b575c16d10a	33.782748	-118.144055	497	Bar	861	215	9	7.7
4	33.78620421	-118.1406484	Stearns Liquor Mart	4cb7da5cbac93704ab2bd87c	33.79601742	-118.1417346	1097	Liquor Store	712	203	11	8.5
4	33.78620421	-118.1406484	Long Beach Fish Grill	4ab82506f964a5205b7c20e3	33.78195564	-118.152728	1213	Seafood Restaurant	1655	599	27	8.6
4	33.78620421	-118.1406484	Out of the Closet Thrift Store	4b81d9f9f964a52024c130e3	33.7895783	-118.1511089	1038	Thrift / Vintage Store	614	369	12	8.3
4	33.78620421	-118.1406484	Red Leprechaun	5000e244e4b0d5040e290e3a	33.78260142	-118.1457687	620	Pub	640	346	18	7.8
4	33.78620421	-118.1406484	Callaloo Caribbean Kitchen	5153a0aee4b0284e3814778f	33.782737	-118.143927	490	Caribbean Restaurant	222	159	13	7.7
4	33.78620421	-118.1406484	May's Thai Kitchen	4b66329ef964a52098182be3	33.782494	-118.1475026	756	Thai Restaurant	555	244	6	7.9
4	33.78620421	-118.1406484	Einstein Bros Bagels	544d2c72498e7d4b1be3f87f	33.79076638	-118.1404671	508	Bagel Shop	276	124	3	7.6
4	33.78620421	-118.1406484	Armstrong Garden Centers	4ba00239f964a520e75137e3	33.77892337	-118.1468372	992	Garden	347	187	4	8.1
4	33.78620421	-118.1406484	Long Beach Recreation Park	4b774ca2f964a5200b902ee3	33.77600675	-118.135672	1224	Playground	993	495	6	8.1
4	33.78620421	-118.1406484	Big E Pizza	4b80a268f964a520728230e3	33.79013221	-118.1537366	1287	Pizza Place	787	341	14	8.5
4	33.78620421	-118.1406484	El Burrito Grill	4ecda3516da162f1bb60f13b	33.78265982	-118.1318491	904	Mexican Restaurant	443	191	7	7.9
4	33.78620421	-118.1406484	Krispy Kreme Doughnuts	4af9af51f964a520511322e3	33.79269733	-118.1381062	760	Donut Shop	1528	859	27	7.8
4	33.78620421	-118.1406484	Charo Chicken	4bafc292f964a520791e3ce3	33.7864882	-118.138742	179	Mexican Restaurant	688	339	6	7.4
4	33.78620421	-118.1406484	Chipotle Mexican Grill	4b007069f964a5203c3e22e3	33.79031805	-118.1387405	490	Mexican Restaurant	6304	2016	29	7.6
4	33.78620421	-118.1406484	Philly's Best	4b271f03f964a520d28424e3	33.79169226	-118.1385452	641	Sandwich Place	868	422	14	7.6
4	33.78620421	-118.1406484	The Coffee Bean & Tea Leaf	4ae07190f964a520507f21e3	33.79173928	-118.1387111	641	Coffee Shop	4042	1113	21	7.6
4	33.78620421	-118.1406484	Robeks Fresh Juices & Smoothies	4bcf1242ef10952132088586	33.78791173	-118.1389063	249	Smoothie Shop	984	368	16	7.3
4	33.78620421	-118.1406484	dean's pizza	4b49517df964a5204f6d26e3	33.77879999	-118.1526138	1380	Pizza Place	536	262	16	8.3
4	33.78620421	-118.1406484	Anytime Fitness	4dc9dfcf1f6e2812676b108e	33.78248182	-118.1456211	619	Gym / Fitness Center	1063	70	4	7.5
4	33.78620421	-118.1406484	Viento y Agua Coffee House & Gallery	4ac7dbd1f964a5202fba20e3	33.77184463	-118.1455801	1662	Coffee Shop	2894	1055	57	8.9
4	33.78620421	-118.1406484	Rascals Teriyaki Grill	4b5b838ff964a520da0329e3	33.78801	-118.1237833	1573	Chinese Restaurant	2886	1070	38	8.5
4	33.78620421	-118.1406484	Recreation Park Dog Park	4ac173fbf964a520369720e3	33.77668602	-118.1324887	1301	Dog Run	2203	434	14	8.1
4	33.78620421	-118.1406484	Alex's Bar	47383a23f964a520454c1fe3	33.782843	-118.157391	1593	Rock Club	4850	2148	20	8.5
4	33.78620421	-118.1406484	Joe Jost's	4a08820df964a520d8731fe3	33.78272993	-118.1587154	1715	Bar	2968	1266	36	8.8
4	33.78620421	-118.1406484	Urban Americana	532de116498e50ff11d0accd	33.78309683	-118.1539565	1278	Antique Shop	82	63	3	7.9
4	33.78620421	-118.1406484	The Coffee Cup Cafe	49e0b200f964a5205f611fe3	33.77162067	-118.1483628	1773	Breakfast Spot	4541	1962	88	8.7
4	33.78620421	-118.1406484	Jamba Juice Ralphs Circle Center	57a8261bcd10b3ef2330222c	33.79189375	-118.1409739	634	Smoothie Shop	26	16	0	7.4
4	33.78620421	-118.1406484	Sconeage Bakery	4e1cdd12c65b6cd0da95c613	33.78277	-118.141758	395	Bakery	176	64	12	7.2
4	33.78620421	-118.1406484	Sushi By 39 ? ( I LUV Sushi)	50abed84e4b0fe64f22600ca	33.774969	-118.152508	1663	Sushi Restaurant	1042	431	17	8.4
5	33.98360927	-117.8718453	Starbucks	4bc61f66424195217ea0031d	33.9865455	-117.8718129	326	Coffee Shop	6786	968	13	8.5
5	33.98360927	-117.8718453	Happy Wok	4b33fd2cf964a5207a2325e3	33.98658	-117.8726174	338	Chinese Restaurant	630	245	10	8
5	33.98360927	-117.8718453	Colima Burgers	4b665ea4f964a520571f2be3	33.987875	-117.869913	507	Burger Joint	1051	452	12	7.9
5	33.98360927	-117.8718453	Ootoro Japanese Restaurant	4fc58cece4b0a4bd4303de86	33.98834141	-117.8705509	540	Sushi Restaurant	721	350	6	7.8
5	33.98360927	-117.8718453	Frank & Son Collectible Show	4b2975c6f964a5203d9f24e3	33.99993491	-117.8749116	1839	Toy / Game Store	10037	3095	60	8.9
5	33.98360927	-117.8718453	Kopan Ramen	55a87d6e498eebfeb390cf94	33.986841	-117.872534	365	Noodle House	422	239	4	7.6
5	33.98360927	-117.8718453	Dragonfly Tea Bar	55e4bc5c498e894f462eb0aa	33.98709632	-117.8846798	1246	Tea Room	124	56	1	8.1
5	33.98360927	-117.8718453	The Boiling Crab	4b95b385f964a5200eb034e3	33.99562178	-117.8897268	2124	Seafood Restaurant	8584	4344	63	8.5
5	33.98360927	-117.8718453	Cafe Terrace	4c51d4729d642d7f1b833fde	33.99760156	-117.8544236	2238	Café	378	119	8	8.4
5	33.98360927	-117.8718453	BBQ Stop	54a20863498ef62589b1875e	33.99727325	-117.8547784	2189	Korean Restaurant	290	168	1	8.4
5	33.98360927	-117.8718453	JJ Bakery	4b413ed7f964a520fcc325e3	33.98599683	-117.8886682	1575	Bakery	867	385	7	7.9
5	33.98360927	-117.8718453	Diamond Bar International Delicatessen	4bd9de022a3a0f470b9ca8b6	33.98513728	-117.84451	2528	Sandwich Place	789	325	11	8.6
5	33.98360927	-117.8718453	Moodaepo Rowland Heights	501f251ae4b00e1d09b303a1	33.98677773	-117.8905394	1761	Korean Restaurant	2584	1321	18	7.9
5	33.98360927	-117.8718453	Yogurtland	4ab6df51f964a5205e7920e3	33.98653985	-117.872119	327	Dessert Shop	2356	830	17	7.2
5	33.98360927	-117.8718453	Kang Ho Dong	5688490d498efbacb69c593e	33.99471666	-117.8903677	2109	Korean Restaurant	377	248	3	8.1
5	33.98360927	-117.8718453	Pho Rowland	4aa5bd72f964a520584920e3	33.99528151	-117.8903013	2142	Vietnamese Restaurant	1357	509	15	8.1
5	33.98360927	-117.8718453	In-n-out	4bf818bd4a67c928cdbd24cf	33.98128826	-117.9058682	3151	Burger Joint	21	13	0	8.6
5	33.98360927	-117.8718453	Jazz Cat Fusion Shabu	4dbf65cffa8cc78a8611d98e	33.99459484	-117.8986817	2762	Asian Restaurant	4975	2155	27	8.2
5	33.98360927	-117.8718453	Ichi Ichi	4bd4f6d7cfa7b713443b25da	33.987404	-117.9074961	3317	Japanese Restaurant	2250	1022	21	8.9
5	33.98360927	-117.8718453	Super H Mart	4b0f370bf964a520796023e3	33.97441756	-117.8389759	3202	Supermarket	4497	1365	32	8.6
5	33.98360927	-117.8718453	Young Dong Tofu	4ed942238231efe38e00b3b4	33.974746	-117.837875	3287	Korean Restaurant	1030	483	12	8.7
5	33.98360927	-117.8718453	Eat Cake Cafe	4e4448dd18a8bafc62929848	33.98669408	-117.8725653	349	Bakery	468	274	20	7.1
5	33.98360927	-117.8718453	Ding's Garden	4b6f11a7f964a520e1da2ce3	33.995514	-117.889936	2131	Chinese Restaurant	1353	662	11	7.7
5	33.98360927	-117.8718453	Rowland Heights Park	4bddfd460ee3a593dd7d2fb0	33.98949765	-117.8804396	1029	Playground	800	250	1	7.2
5	33.98360927	-117.8718453	Royal Vista Golf Club	4baaad10f964a520f87e3ae3	33.99012757	-117.8657266	919	Golf Course	1116	554	5	7.2
5	33.98360927	-117.8718453	Half & Half Tea Express ???	4f01001202d580f8f0f79f2d	33.9948363	-117.8995228	2843	Tea Room	4516	1938	27	8
5	33.98360927	-117.8718453	Deli On Valley	526eaad1498e6099128f7d21	34.006876	-117.864768	2671	Sandwich Place	166	38	4	7.9
5	33.98360927	-117.8718453	Friendship Park	4baaaf9ef964a520ce7f3ae3	34.00933038	-117.8802793	2967	Park	515	99	0	8
5	33.98360927	-117.8718453	Ten Ren's Tea Time	4d992bf9b7bf2c0fe8edf22d	33.99342678	-117.9039457	3157	Tea Room	2461	978	11	8.2
5	33.98360927	-117.8718453	Ajisen Ramen	4ae9d3bff964a520d0b621e3	33.98899377	-117.906017	3210	Noodle House	3572	1519	24	8.2
5	33.98360927	-117.8718453	T-Mobile Store	4c7e859d8ae376b0e2468774	33.98623944	-117.8701046	333	Electronics Store	57	24	1	6.9
5	33.98360927	-117.8718453	In-N-Out Burger	49c02c7bf964a52050551fe3	34.00049327	-117.8433316	3233	Burger Joint	2952	1461	22	8.2
5	33.98360927	-117.8718453	Afters Ice Cream	5698619c38faee0dca5d1e67	33.99537329	-117.8903105	2149	Ice Cream Shop	230	182	1	7.6
5	33.98360927	-117.8718453	Mayan Tacos	4b8dd5b8f964a520da0f33e3	34.00916284	-117.8607273	3024	Mexican Restaurant	891	332	19	7.9
5	33.98360927	-117.8718453	Newport Seafood Restaurant	4b9eb0c8f964a520eaf936e3	33.988987	-117.9031576	2951	Chinese Restaurant	1900	1112	19	7.9
5	33.98360927	-117.8718453	In-N-Out Burger	4b410e44f964a5203cc025e3	33.99036716	-117.9153945	4089	Burger Joint	5263	2315	29	9
5	33.98360927	-117.8718453	Starbucks	4ae1cdfaf964a5208f8721e3	33.974644	-117.837676	3308	Coffee Shop	4787	991	14	8.1
5	33.98360927	-117.8718453	Sushi Koshu	507f5c10e4b0bffc6e83dd06	33.99807804	-117.8550875	2233	Japanese Restaurant	361	218	4	7.5
5	33.98360927	-117.8718453	Creamistry	54e8ed3e498e2016979a2feb	33.99369488	-117.9042433	3194	Ice Cream Shop	644	367	5	7.9
5	33.98360927	-117.8718453	Baskin-Robbins	4bdc6f7cfed22d7f672558c9	33.995792	-117.905971	3429	Ice Cream Shop	438	245	1	8
5	33.98360927	-117.8718453	Original Tommy's Hamburgers	4b0066c8f964a520ca3d22e3	33.98913122	-117.9058339	3196	Burger Joint	1691	859	30	7.9
5	33.98360927	-117.8718453	Yes Plaza	4becd608bbe62d7f81787f2b	33.9875419	-117.9069839	3272	Plaza	3188	1059	8	7.9
5	33.98360927	-117.8718453	Nodaji	4af5376cf964a52097f821e3	33.98733456	-117.9065434	3229	Korean Restaurant	1469	600	7	7.9
5	33.98360927	-117.8718453	Yi Mei Deli	4aef1bd5f964a520b1d521e3	33.986748	-117.903008	2897	Chinese Restaurant	1448	619	11	7.7
5	33.98360927	-117.8718453	Ten Ren's	4fa6e84ce4b01acec50109be	34.00965244	-117.8599579	3099	Café	2928	536	16	7.7
5	33.98360927	-117.8718453	Starbucks	4ec85ee6775bf65c04930414	34.00979	-117.859505	3129	Coffee Shop	2127	363	12	7.7
5	33.98360927	-117.8718453	Boiling Point	5175e69f498e5c19dbbf2764	33.993378	-117.902607	3040	Chinese Restaurant	1955	719	8	7.7
5	33.98360927	-117.8718453	Benihana	4b46bf54f964a520b92726e3	33.99553957	-117.9143074	4138	Japanese Restaurant	3610	1798	17	8.4
5	33.98360927	-117.8718453	New York Pizzeria	4aa43693f964a520d64520e3	34.0202428	-117.864336	4136	Pizza Place	974	261	8	8.4
5	33.98360927	-117.8718453	Ayres Suites Diamond Bar	4c855e3a30789c7443df6ce3	34.00352388	-117.829749	4473	Hotel	1246	337	26	8.7
6	34.1707182	-118.0886984	Carmela Ice Cream & Sorbet	4d235ed7bcbf2c0f72c59be4	34.16922609	-118.0991064	972	Ice Cream Shop	3091	1578	83	9.1
6	34.1707182	-118.0886984	Eaton Canyon Hiking Trail	4b8a14b0f964a520175f32e3	34.17771036	-118.0982342	1173	Trail	5128	3019	39	9
6	34.1707182	-118.0886984	Domenico's	4b3e66e0f964a520909c25e3	34.16928327	-118.1007604	1122	Pizza Place	1324	478	18	8.6
6	34.1707182	-118.0886984	mintleaf	550a415e498e66d716ed4693	34.169143	-118.098134	886	Indian Restaurant	147	97	0	8.3
6	34.1707182	-118.0886984	Eaton Canyon Nature Center	4bd86f675cf276b0ec3c9d00	34.17700123	-118.0966853	1015	Trail	1001	494	9	8.3
6	34.1707182	-118.0886984	Pasadena-Victory Park Farmer's Market	4b92ac2ef964a520fc0f34e3	34.16079454	-118.0936846	1196	Farmers Market	2006	511	13	8.6
6	34.1707182	-118.0886984	Tournament of Roses Post Parade	56883dad38fa7274df389d1e	34.16154881	-118.09201	1065	Street Art	152	136	1	8.2
6	34.1707182	-118.0886984	Cafe Culture	4b686a9bf964a52038772be3	34.16956802	-118.0984285	905	Café	181	69	4	8
6	34.1707182	-118.0886984	Trader Joe's	4aeb565ff964a5201fc121e3	34.15360404	-118.0783457	2130	Grocery Store	5748	1156	18	9.1
6	34.1707182	-118.0886984	Gerrish Swim and Tennis Club	4c2fa253a0ced13a8bea106e	34.1741991	-118.0944505	656	Pool	789	71	4	7.7
6	34.1707182	-118.0886984	Pasadena Sandwich Company	4a9c6d85f964a520223720e3	34.15076396	-118.0825732	2291	Sandwich Place	1315	749	28	8.9
6	34.1707182	-118.0886984	Ulta Beauty	4b737c50f964a520cdb02de3	34.15257205	-118.0802754	2163	Salon / Barbershop	1818	758	8	8.7
6	34.1707182	-118.0886984	Shogun	4b007eadf964a520e83e22e3	34.15422716	-118.078968	2042	Japanese Restaurant	2728	1045	18	8.4
6	34.1707182	-118.0886984	Mission Wine and Spirits	4c2e3ff276a7ef3bfefbdeb8	34.16932608	-118.1133217	2273	Wine Shop	1469	425	19	8.6
6	34.1707182	-118.0886984	Starbucks	5081fa79e4b0fbd4bfb62338	34.168987	-118.11256	2206	Coffee Shop	1039	270	2	8.4
6	34.1707182	-118.0886984	Nordstrom Rack Hastings Village	4afef21bf964a520f73122e3	34.1533836	-118.0810642	2053	Clothing Store	4785	2073	21	8.6
6	34.1707182	-118.0886984	Panda Inn	4b8224dff964a5209ecb30e3	34.14990281	-118.0781344	2513	Chinese Restaurant	3046	1405	31	8.7
6	34.1707182	-118.0886984	Kabuki Japanese Restaurant	4ae39e9af964a520549721e3	34.15065065	-118.076731	2491	Japanese Restaurant	5016	1590	38	8.6
6	34.1707182	-118.0886984	Hook Burger Bistro	4e21d05bb0fbdf9ba7adc30e	34.15035717	-118.0794808	2420	Burger Joint	2390	1011	20	8.5
6	34.1707182	-118.0886984	Alice Frost Kennedy Dog Park	4b888d27f964a520230032e3	34.15646268	-118.0864714	1600	Dog Run	4561	913	40	7.9
6	34.1707182	-118.0886984	Peet's Coffee & Tea	4ab5c166f964a520077620e3	34.15037654	-118.0759887	2549	Coffee Shop	4181	776	20	8.6
6	34.1707182	-118.0886984	In-N-Out Burger	4a9bd29bf964a520453520e3	34.14951065	-118.1068495	2892	Burger Joint	6068	2789	45	9.3
6	34.1707182	-118.0886984	Panera Bread	4a8ed4bef964a520d11220e3	34.150718	-118.0774	2457	Sandwich Place	5948	2076	41	8.4
6	34.1707182	-118.0886984	Stonefire Grill	4b075eb3f964a520c8fc22e3	34.15404797	-118.078431	2082	BBQ Joint	5024	1874	50	8
6	34.1707182	-118.0886984	Baskin-Robbins	4b9efc5ff964a5207c0e37e3	34.150864	-118.074369	2574	Ice Cream Shop	885	409	4	8.3
6	34.1707182	-118.0886984	PetSmart	4a9acb67f964a520c33220e3	34.15206166	-118.0812699	2186	Pet Store	3927	1180	15	8
6	34.1707182	-118.0886984	Lavender & Honey	53a328fa498e1c53f4797632	34.169287	-118.1221	3080	Café	1237	487	21	9
6	34.1707182	-118.0886984	Jameson Brown Coffee Roasters	4cfd6a7bd8468cfa49f0ff6b	34.15066319	-118.1129794	3160	Café	4504	961	56	9.1
6	34.1707182	-118.0886984	Whole Foods Market	4af64180f964a520ad0222e3	34.15118875	-118.0722195	2651	Grocery Store	8456	2494	51	8.4
6	34.1707182	-118.0886984	Starbucks	4a988955f964a520932c20e3	34.150375	-118.080344	2391	Coffee Shop	7077	1783	24	8.1
6	34.1707182	-118.0886984	Super Burger	4bfeb9b74e5d0f47720e7d1f	34.154305	-118.09856	2040	Burger Joint	498	251	8	7.9
6	34.1707182	-118.0886984	Einstein Bros Bagels	4b2ff359f964a52032f324e3	34.15105304	-118.0729923	2623	Bagel Shop	1898	680	16	8.3
6	34.1707182	-118.0886984	Viva Tacos La Estrella	4a08d988f964a5201e741fe3	34.150036	-118.0982578	2464	Mexican Restaurant	1528	617	19	8.1
6	34.1707182	-118.0886984	Robin's Wood Fire BBQ	4aeba811f964a52030c421e3	34.15292411	-118.0773144	2241	BBQ Joint	2091	887	23	8
6	34.1707182	-118.0886984	Ichima Japanese Cuisine	4acd2235f964a520fdca20e3	34.15198118	-118.0761087	2386	Sushi Restaurant	4976	1607	54	8
6	34.1707182	-118.0886984	The Habit Burger Grill	4ec8231d61af9e14308e969e	34.1512779	-118.0733043	2587	Burger Joint	2800	1195	31	8.2
6	34.1707182	-118.0886984	altaeats	515cfc9fe4b08c31234ca5ba	34.178025	-118.112055	2299	American Restaurant	249	137	8	7.9
6	34.1707182	-118.0886984	Burrito Express	4ae0b0b3f964a520aa8121e3	34.16927763	-118.117645	2670	Burrito Place	1142	383	17	8.2
6	34.1707182	-118.0886984	Cost Plus World Market	4b3fb24ef964a5207bac25e3	34.14682354	-118.074738	2954	Miscellaneous Shop	1985	936	6	8.4
6	34.1707182	-118.0886984	Panda Express Innovation Kitchen	53b1c51c498e59958f327d25	34.15094	-118.068421	2887	Chinese Restaurant	780	417	10	8.3
6	34.1707182	-118.0886984	Victory Park	4a6cb918f964a52069d11fe3	34.16031504	-118.0971539	1395	Park	2511	785	7	7.5
6	34.1707182	-118.0886984	LA Fitness	535b0313498ef304aa36ce75	34.1524091	-118.0770343	2303	Gym / Fitness Center	2613	191	7	7.9
6	34.1707182	-118.0886984	Mother Moo Creamery	4e6bf4ce483b1f5ebde00f30	34.16217305	-118.0532251	3402	Ice Cream Shop	1935	738	22	8.9
6	34.1707182	-118.0886984	Eaton Canyon Golf Course	4b47be5ef964a520d13c26e3	34.1681929	-118.0794523	896	Golf Course	634	242	6	7.3
6	34.1707182	-118.0886984	7-Eleven	4b36d023f964a520e83c25e3	34.16891476	-118.0987677	948	Convenience Store	908	223	11	7.3
6	34.1707182	-118.0886984	O'seyo	543b3a01498ecacff532f8a0	34.14634292	-118.0910097	2721	Japanese Restaurant	544	252	4	8.1
6	34.1707182	-118.0886984	Massage Envy - Pasadena Hastings Ranch	4e3d894bd4c058f9dc06817e	34.151041	-118.073033	2623	Spa	328	116	5	8
6	34.1707182	-118.0886984	BevMo!	4e31e581aeb70f3d5f1a34a2	34.15000478	-118.0724157	2750	Liquor Store	2023	889	5	8.1
6	34.1707182	-118.0886984	Bed Bath & Beyond	4b3b9e2cf964a5201b7725e3	34.15116433	-118.0818057	2267	Furniture / Home Store	3394	1585	9	7.8
6	34.1707182	-118.0886984	Famous Shish Kabob	4b661f7cf964a520f0142be3	34.14602	-118.0963819	2839	Restaurant	167	96	5	8.2
7	34.03630774	-117.8221477	In-N-Out Burger	4abfac12f964a520949120e3	34.0274375	-117.8347174	1523	Burger Joint	6315	2450	30	8.8
7	34.03630774	-117.8221477	PetSmart	4b33cc5ef964a520671f25e3	34.02856109	-117.8323076	1273	Pet Store	1796	571	6	8.4
7	34.03630774	-117.8221477	Kellogg Ranch Farm Store/Agriscapes	4c9904cdb6ee236a172bada7	34.04869033	-117.8193997	1401	Farmers Market	1050	610	5	8.5
7	34.03630774	-117.8221477	Boulevard 574	533eff35498e884af22cc81d	34.03058758	-117.8093418	1342	American Restaurant	209	109	39	8.4
7	34.03630774	-117.8221477	Snow Creek Park	4be1facd660ec9285154c83b	34.03533574	-117.8377796	1446	Park	678	286	5	8.1
7	34.03630774	-117.8221477	Capriotti's Sandwich Shop	50c949a7e4b0ee0d74d14afb	34.02754868	-117.8365364	1647	Sandwich Place	436	276	5	8.5
7	34.03630774	-117.8221477	Pieology Pizzeria	51f6cf0f5019f93c07c778b2	34.02739032	-117.8365611	1659	Pizza Place	1511	712	12	8.4
7	34.03630774	-117.8221477	Kohl's	4b78c6abf964a520f3e12ee3	34.028191	-117.831322	1238	Department Store	2036	804	4	8.1
7	34.03630774	-117.8221477	Chipotle Mexican Grill	4b4bed0cf964a52065ab26e3	34.02781382	-117.8338187	1432	Mexican Restaurant	4968	1657	22	8.2
7	34.03630774	-117.8221477	HomeGoods	4fd7fcfde4b0b755206bbed6	34.02805573	-117.8377854	1710	Furniture / Home Store	488	249	1	8.2
7	34.03630774	-117.8221477	Starbucks	4b6c81b3f964a520823f2ce3	34.04177511	-117.7984527	2268	Coffee Shop	2821	844	13	8.5
7	34.03630774	-117.8221477	Innovation Brew Works	549203cf498ed65f02c30f1c	34.0497821	-117.8149232	1641	Brewery	188	130	3	7.8
7	34.03630774	-117.8221477	Yogurtland	5723e4ef498e11c97e8f7cf7	34.02785225	-117.8336585	1419	Frozen Yogurt Shop	40	23	0	7.7
7	34.03630774	-117.8221477	Starbucks	57747ff8498e936e58ace0ee	34.04755049	-117.8109019	1625	Café	215	56	0	7.7
7	34.03630774	-117.8221477	Diamond Palace Seafood	4bddc1a90ee3a593c7842eb0	34.02181858	-117.8119007	1869	Chinese Restaurant	1250	612	11	7.8
7	34.03630774	-117.8221477	Walnut High School	4b135cacf964a520a29623e3	34.02192595	-117.8507836	3089	High School	3182	473	7	8.6
7	34.03630774	-117.8221477	Cal Poly Pumpkin Patch	50846922e4b0ca3a2bfede7a	34.04948721	-117.8187242	1500	Garden Center	265	245	4	7.6
7	34.03630774	-117.8221477	Jinza Teriyaki	4b708271f964a520e51e2de3	34.04726386	-117.8111225	1587	Japanese Restaurant	965	324	12	7.7
7	34.03630774	-117.8221477	Bed Bath & Beyond	4b3c033bf964a5205a8025e3	34.02714193	-117.833427	1457	Furniture / Home Store	1067	508	4	7.6
7	34.03630774	-117.8221477	Nature's Juice	5079e11be4b07d24b0b141bd	34.027566	-117.83654	1646	Juice Bar	1489	368	9	7.6
7	34.03630774	-117.8221477	Chick-fil-A City of Industry	4d730148bce5721e4bf8d615	34.02606354	-117.8361154	1720	Fast Food Restaurant	6645	2028	46	7.6
7	34.03630774	-117.8221477	Ten Ren's Tea Time	4b493785f964a5205d6a26e3	34.02732584	-117.836984	1695	Taiwanese Restaurant	4889	1255	15	7.6
7	34.03630774	-117.8221477	Cha for Tea	52438f3d11d2bace0c1d48ff	34.04861947	-117.8107557	1727	Tea Room	589	253	7	7.6
7	34.03630774	-117.8221477	Starbucks	4b2ba077f964a5206cb824e3	34.02757	-117.836501	1642	Coffee Shop	7251	1753	19	7.5
7	34.03630774	-117.8221477	Ayres Suites Diamond Bar	4c855e3a30789c7443df6ce3	34.00352388	-117.829749	3716	Hotel	1246	337	26	8.7
7	34.03630774	-117.8221477	Pho Super Bowl	4af1d70ff964a520b2e321e3	34.01940561	-117.8092788	2224	Vietnamese Restaurant	2330	767	19	7.6
7	34.03630774	-117.8221477	Michaels	4b95d2def964a520a3b434e3	34.0266288	-117.833661	1512	Arts & Crafts Store	2030	767	5	7.3
7	34.03630774	-117.8221477	MAKOMAE	560b3cc6498e541543e681eb	34.034332	-117.806025	1503	Sushi Restaurant	112	42	2	7.3
7	34.03630774	-117.8221477	BevMo!	5032690be4b0b50410dcc262	34.02730395	-117.8329611	1414	Wine Shop	816	427	4	7.3
7	34.03630774	-117.8221477	Baskin-Robbins	4bd0713377b29c74f9b48a82	34.01954591	-117.8092219	2214	Ice Cream Shop	344	156	2	7.5
7	34.03630774	-117.8221477	Bronco Bookstore	4bec6266976ac92816ee600b	34.056055	-117.820466	2203	College Bookstore	1280	318	1	7.4
7	34.03630774	-117.8221477	Panera Bread	4ffc8879e4b09b781ff8afcf	34.028233	-117.834787	1472	Sandwich Place	2197	785	16	7.2
7	34.03630774	-117.8221477	Massage Envy - Diamond Bar	4f48329fe4b072f5aa3df0ea	34.001419	-117.811362	4009	Spa	281	86	6	8.2
7	34.03630774	-117.8221477	Bronco Student Center	4b58ebd0f964a520167328e3	34.05654499	-117.8210764	2254	Student Center	3617	690	10	7.4
7	34.03630774	-117.8221477	Mandarin Taste	4b27dbe1f964a5204e8b24e3	34.018003	-117.810765	2292	Chinese Restaurant	363	158	14	7.4
7	34.03630774	-117.8221477	New York Pizzeria	4aa43693f964a520d64520e3	34.0202428	-117.864336	4283	Pizza Place	974	261	8	8.4
7	34.03630774	-117.8221477	Taco Nazo	4b306c7bf964a52089f924e3	34.04462421	-117.8491295	2655	Mexican Restaurant	549	303	12	7.5
7	34.03630774	-117.8221477	Jamba Juice Cal Poly Pomona - BRIC	54332c9c498ef8a7178e536f	34.0578998	-117.8231728	2405	Smoothie Shop	20	6	0	7.4
7	34.03630774	-117.8221477	Lollicup	4b9d8777f964a5202bb236e3	34.0434676	-117.8490087	2602	Tea Room	3203	683	16	7.5
7	34.03630774	-117.8221477	Suzanne Park	4b647348f964a52018b42ae3	34.02620746	-117.8504516	2842	Park	764	285	6	7.5
7	34.03630774	-117.8221477	Boulevard Bagels	4b952d90f964a5202e9334e3	34.03069119	-117.8093418	1336	Bagel Shop	672	213	14	7
7	34.03630774	-117.8221477	The Flame Broiler	4b48fefaf964a520426126e3	34.02812198	-117.8332722	1372	Fast Food Restaurant	1284	612	8	7
7	34.03630774	-117.8221477	It's A Grind Coffee House	4a8708dcf964a5203d0220e3	34.00069144	-117.8124536	4064	Coffee Shop	3153	486	26	8
7	34.03630774	-117.8221477	Pantera Park	4b45404af964a5201d0926e3	34.013276	-117.791206	3837	Park	2057	458	8	7.8
7	34.03630774	-117.8221477	Diamond Bar Center	4ae06e96f964a520417f21e3	33.9986499	-117.7978563	4753	Building	1284	704	3	8.4
7	34.03630774	-117.8221477	In-N-Out Burger	49c02c7bf964a52050551fe3	34.00049327	-117.8433316	4440	Burger Joint	2952	1461	22	8.2
7	34.03630774	-117.8221477	Walmart Neighborhood Market	559dbb97498ee47a25337eeb	34.00127159	-117.8095249	4070	Grocery Store	285	95	1	7.9
7	34.03630774	-117.8221477	Rubio's	4b410b0cf964a520fbbf25e3	34.02735041	-117.8370813	1700	Mexican Restaurant	1595	655	9	7.1
7	34.03630774	-117.8221477	Domo Sushi & Roll	4b883440f964a52034e731e3	34.04623113	-117.8497088	2771	Japanese Restaurant	410	164	6	7.4
7	34.03630774	-117.8221477	Frank G. Bonelli Regional Park	4af4db62f964a520f9f621e3	34.08348118	-117.8062248	5452	Park	2852	1546	16	9.3
8	34.18072312	-118.2417004	Berolina Bakery	4b7578f5f964a520710e2ee3	34.20094758	-118.228502	2558	Bakery	577	208	12	8.6
8	34.18072312	-118.2417004	Oakmont Country Club	4ab2e104f964a520c76c20e3	34.19358082	-118.2341912	1589	Golf Course	1176	294	2	7.8
8	34.18072312	-118.2417004	Shamshiri Restaurant	4b01bd71f964a520034522e3	34.16329318	-118.256417	2366	Mediterranean Restaurant	447	245	7	8.3
8	34.18072312	-118.2417004	Trader Joe's	4a8f5455f964a520ed1420e3	34.15961959	-118.254481	2627	Grocery Store	5725	1658	22	8.6
8	34.18072312	-118.2417004	Fish King	4abac100f964a520ca8220e3	34.15685	-118.241144	2658	Fish Market	1586	677	21	8.5
8	34.18072312	-118.2417004	Paradis Ice Cream	4b0db0a1f964a520f64d23e3	34.20593	-118.229051	3038	Ice Cream Shop	1004	529	23	9.4
8	34.18072312	-118.2417004	Glendale Sports Complex	4b2b1787f964a5205bb424e3	34.18441657	-118.2157724	2422	Gym	2345	541	6	8.1
8	34.18072312	-118.2417004	C'est La Vie	57b61938498e07c6725efe06	34.20195325	-118.227514	2700	French Restaurant	41	24	4	8.4
8	34.18072312	-118.2417004	Trader Joe's	4e91e0bf5c5c4562f088abee	34.20700186	-118.2328034	3037	Grocery Store	2583	621	10	8.8
8	34.18072312	-118.2417004	Blue Fish Sushi	4b9a86dff964a520fabd35e3	34.205408	-118.2269671	3064	Sushi Restaurant	1586	553	29	8.8
8	34.18072312	-118.2417004	New Moon Restaurant	4b319581f964a5205e0925e3	34.20468532	-118.224474	3103	Chinese Restaurant	1724	687	32	8.9
8	34.18072312	-118.2417004	Brand Park	4b6220eef964a5205d372ae3	34.18161733	-118.277235	3273	Park	1805	823	15	9.3
8	34.18072312	-118.2417004	Cracking Crab	53e2e7eb498e38b5df5240d7	34.20511447	-118.2269324	3036	Seafood Restaurant	279	173	4	8.7
8	34.18072312	-118.2417004	Baskin-Robbins	4b9f9968f964a520fb2d37e3	34.164386	-118.257034	2302	Ice Cream Shop	409	197	2	7.9
8	34.18072312	-118.2417004	Brand Library & Art Center	49c73028f964a5209e571fe3	34.18235604	-118.2767268	3230	Library	451	289	12	9.1
8	34.18072312	-118.2417004	India's Flavor	4aefa20df964a520add921e3	34.1986755	-118.2296276	2286	Indian Restaurant	287	198	14	7.9
8	34.18072312	-118.2417004	La Cabañita	4583e528f964a520893f1fe3	34.2015362	-118.2278466	2644	Taco Place	2220	1015	42	8
8	34.18072312	-118.2417004	The Black Cow	4a916734f964a520181a20e3	34.20529003	-118.22596	3095	American Restaurant	3100	1570	44	8.5
8	34.18072312	-118.2417004	Porto's Bakery & Cafe	4a8b29b1f964a5209f0b20e3	34.15038798	-118.2553262	3602	Bakery	29700	14482	375	9.5
8	34.18072312	-118.2417004	The Wine Cave	4b8c7f91f964a520dcd332e3	34.206923	-118.231331	3068	Wine Bar	950	194	17	8.3
8	34.18072312	-118.2417004	Equinox Glendale	54ee7e6c498eed5faa667381	34.15694	-118.256544	2979	Gym / Fitness Center	1242	122	1	8.2
8	34.18072312	-118.2417004	Glorietta Park	4ae49412f964a520dd9b21e3	34.18821907	-118.2270638	1585	Park	864	234	2	7.4
8	34.18072312	-118.2417004	The Coffee Bean & Tea Leaf	4abd3a1af964a5201e8920e3	34.16863458	-118.2290676	1778	Coffee Shop	1890	513	11	7.4
8	34.18072312	-118.2417004	The T Room	4bf99e5e4a67c928cb2f27cf	34.20649631	-118.2305932	3045	Tea Room	87	69	1	8.2
8	34.18072312	-118.2417004	Zeke's Smokehouse	4a8705e3f964a520270220e3	34.20532736	-118.2256931	3110	BBQ Joint	1685	765	16	8.3
8	34.18072312	-118.2417004	Cost Plus World Market	4a710288f964a520f6d81fe3	34.14941076	-118.2476413	3528	Furniture / Home Store	2069	1096	9	8.7
8	34.18072312	-118.2417004	Whole Foods Market	4a6a3e68f964a520eecc1fe3	34.15111067	-118.2457726	3317	Grocery Store	13276	3352	59	8.4
8	34.18072312	-118.2417004	Ralphs	4a639503f964a5205fc51fe3	34.16411558	-118.2565539	2299	Supermarket	4134	727	8	7.6
8	34.18072312	-118.2417004	Descanso Gardens	4b9db3aef964a520faba36e3	34.20331975	-118.2110882	3777	Garden	5178	3135	36	9.4
8	34.18072312	-118.2417004	Basin 141	524f72d4498ec2e277fbe731	34.20537719	-118.2271266	3054	New American Restaurant	1192	382	14	8.1
8	34.18072312	-118.2417004	Montrose Farmers Market	50fc3c3ae4b0c9eeb2905e5b	34.20579968	-118.2289999	3026	Farmers Market	219	128	5	8.1
8	34.18072312	-118.2417004	Giuseppe's	4d43966114aa8cfa09bd5c3d	34.20666863	-118.231534	3036	Italian Restaurant	556	205	8	8.1
8	34.18072312	-118.2417004	Schreiner's Fine Sausages	4b5e1474f964a5208d7c29e3	34.200722	-118.22856	2533	Restaurant	548	227	11	7.7
8	34.18072312	-118.2417004	In-N-Out Burger	4a77a333f964a520f4e41fe3	34.14865938	-118.2273558	3805	Burger Joint	11267	4665	56	9
8	34.18072312	-118.2417004	Prolase	51ead4b3498e81797fb3f155	34.158749	-118.263805	3182	Spa	221	94	0	8.1
8	34.18072312	-118.2417004	Froyo Life	4a655676f964a52080c71fe3	34.20570637	-118.2281417	3048	Dessert Shop	1690	561	17	8
8	34.18072312	-118.2417004	Seasoning Alley	53b1bfa3498e241b0ac88671	34.205846	-118.22946	3015	Mediterranean Restaurant	184	94	3	8
8	34.18072312	-118.2417004	Carousel Restaurant	4a6a0941f964a52070cc1fe3	34.15013439	-118.2548511	3614	Middle Eastern Restaurant	2123	1421	27	8.5
8	34.18072312	-118.2417004	Swain's	4a68a42ef964a520bcca1fe3	34.15471676	-118.2436597	2900	Arts & Crafts Store	1057	610	8	7.8
8	34.18072312	-118.2417004	Montrose Community Park	4c1d2d028b3aa59394249a5f	34.20181629	-118.2250706	2803	Playground	914	318	4	7.7
8	34.18072312	-118.2417004	United Artists La Canada 8	4b37c02af964a5207f4525e3	34.20654589	-118.2169779	3666	Movie Theater	4092	1577	27	8.5
8	34.18072312	-118.2417004	Gauchos Village	4ac9126bf964a5206fbe20e3	34.14779846	-118.2542069	3841	Churrascaria	1819	1245	53	8.2
8	34.18072312	-118.2417004	Alex Theatre	4aff7ad3f964a520f83822e3	34.14883476	-118.2548122	3749	Performing Arts Venue	2193	1525	8	8.5
8	34.18072312	-118.2417004	Everest	55106b98498ecc23846258a0	34.1497728	-118.2580842	3761	Burger Joint	279	122	2	8.5
8	34.18072312	-118.2417004	The Habit Burger Grill	4a91ad29f964a5204b1b20e3	34.14961461	-118.2461455	3487	Burger Joint	3468	1698	27	8.2
8	34.18072312	-118.2417004	Paris Baguette	4b8ed90cf964a520a83a33e3	34.15810532	-118.2636458	3228	Bakery	1125	392	8	8
8	34.18072312	-118.2417004	The Vitamin Shoppe	4ae61c87f964a520c7a421e3	34.152104	-118.2449349	3199	Miscellaneous Shop	547	236	3	8
8	34.18072312	-118.2417004	Portobello's	4b721c3bf964a520406f2de3	34.20527769	-118.2263499	3077	Italian Restaurant	283	178	8	7.8
8	34.18072312	-118.2417004	Mignon	4c54a1dffd2ea593b1d3642a	34.15068423	-118.2364413	3378	Café	310	102	3	8.1
8	34.18072312	-118.2417004	Acapulco Mexican Restaurant	4a91b6ccf964a5207f1b20e3	34.15705021	-118.2638456	3332	Mexican Restaurant	1724	952	17	8
9	33.98168506	-117.8252293	Young Dong Tofu	4ed942238231efe38e00b3b4	33.974746	-117.837875	1399	Korean Restaurant	1030	483	12	8.7
9	33.98168506	-117.8252293	Super H Mart	4b0f370bf964a520796023e3	33.97441756	-117.8389759	1504	Supermarket	4497	1365	32	8.6
9	33.98168506	-117.8252293	Diamond Bar International Delicatessen	4bd9de022a3a0f470b9ca8b6	33.98513728	-117.84451	1820	Sandwich Place	789	325	11	8.6
9	33.98168506	-117.8252293	Starbucks	4ae1cdfaf964a5208f8721e3	33.974644	-117.837676	1390	Coffee Shop	4787	991	14	8.1
9	33.98168506	-117.8252293	Ayres Suites Diamond Bar	4c855e3a30789c7443df6ce3	34.00352388	-117.829749	2466	Hotel	1246	337	26	8.7
9	33.98168506	-117.8252293	Massage Envy - Diamond Bar	4f48329fe4b072f5aa3df0ea	34.001419	-117.811362	2542	Spa	281	86	6	8.2
9	33.98168506	-117.8252293	Tea Rush	4c15a30c7f7f2d7f84dde268	33.975822	-117.837737	1326	Tea Room	987	302	8	7.7
9	33.98168506	-117.8252293	In-N-Out Burger	49c02c7bf964a52050551fe3	34.00049327	-117.8433316	2678	Burger Joint	2952	1461	22	8.2
9	33.98168506	-117.8252293	Diamond Bar Center	4ae06e96f964a520417f21e3	33.9986499	-117.7978563	3154	Building	1284	704	3	8.4
9	33.98168506	-117.8252293	It's A Grind Coffee House	4a8708dcf964a5203d0220e3	34.00069144	-117.8124536	2422	Coffee Shop	3153	486	26	8
9	33.98168506	-117.8252293	BBQ Stop	54a20863498ef62589b1875e	33.99727325	-117.8547784	3232	Korean Restaurant	290	168	1	8.4
9	33.98168506	-117.8252293	Cafe Terrace	4c51d4729d642d7f1b833fde	33.99760156	-117.8544236	3224	Café	378	119	8	8.4
9	33.98168506	-117.8252293	Pho Hana	4b8f41f4f964a520724f33e3	33.97555768	-117.838189	1377	Vietnamese Restaurant	946	380	7	7.6
9	33.98168506	-117.8252293	BAIT	507f7057e4b04a2c7d8838cc	33.97598183	-117.8376594	1311	Shoe Store	237	133	4	7.5
9	33.98168506	-117.8252293	Walmart Neighborhood Market	559dbb97498ee47a25337eeb	34.00127159	-117.8095249	2618	Grocery Store	285	95	1	7.9
9	33.98168506	-117.8252293	Cherry On Top	4bb3f1389af3b713c7cc8b28	33.97578732	-117.8378105	1334	Ice Cream Shop	1113	332	7	7.5
9	33.98168506	-117.8252293	Diamond Palace	4ba03703f964a520056237e3	33.99978018	-117.810086	2451	Indian Restaurant	637	407	4	7.8
9	33.98168506	-117.8252293	Yoko Yoko Sushi & Roll	4aecfbe3f964a5208dcc21e3	33.99953961	-117.8125361	2307	Sushi Restaurant	1469	513	20	7.7
9	33.98168506	-117.8252293	Starbucks	4bc61f66424195217ea0031d	33.9865455	-117.8718129	4333	Coffee Shop	6786	968	13	8.5
9	33.98168506	-117.8252293	The Whole Enchilada	4b4cd7e8f964a52046c126e3	34.00260433	-117.8094563	2746	Mexican Restaurant	1032	409	12	7.7
9	33.98168506	-117.8252293	Han Sang Korean Restaurant	4bc12922461576b04e957b32	33.99826017	-117.8436758	2510	Korean Restaurant	513	313	5	7.6
9	33.98168506	-117.8252293	Frank & Son Collectible Show	4b2975c6f964a5203d9f24e3	33.99993491	-117.8749116	5015	Toy / Game Store	10037	3095	60	8.9
9	33.98168506	-117.8252293	Starbucks	570847c4cd10deccf8b92dc2	34.00513606	-117.8228887	2619	Coffee Shop	452	104	2	7.6
9	33.98168506	-117.8252293	Diamond Fresh Farmers Market	5132a9e2e4b07cce4803601f	34.00015466	-117.8425932	2606	Farmers Market	545	234	11	7.5
9	33.98168506	-117.8252293	In-N-Out Burger	4abfac12f964a520949120e3	34.0274375	-117.8347174	5167	Burger Joint	6315	2450	30	8.8
9	33.98168506	-117.8252293	Grand Ave Park	4beb3fb6183895210ef10acf	33.99366538	-117.7742921	4887	Park	1160	389	0	8.3
9	33.98168506	-117.8252293	Walnut High School	4b135cacf964a520a29623e3	34.02192595	-117.8507836	5062	High School	3182	473	7	8.6
9	33.98168506	-117.8252293	7-Eleven	4c5e6eea857ca593bacbcfcb	33.99794717	-117.8134479	2111	Convenience Store	1061	251	4	7.4
9	33.98168506	-117.8252293	Julie's Cafe	500ada38e4b0647ba4ebdd32	34.002403	-117.809755	2712	Bagel Shop	923	255	17	7.5
9	33.98168506	-117.8252293	Capriotti's Sandwich Shop	50c949a7e4b0ee0d74d14afb	34.02754868	-117.8365364	5211	Sandwich Place	436	276	5	8.5
9	33.98168506	-117.8252293	Barro's Pizza	4c50914d0ef3a593947d937a	33.99903789	-117.8457698	2706	Pizza Place	548	260	10	7.5
9	33.98168506	-117.8252293	Target	49d7ec9ef964a5207b5d1fe3	34.00496493	-117.8213739	2615	Big Box Store	12117	2291	15	7.4
9	33.98168506	-117.8252293	Happy Wok	4b33fd2cf964a5207a2325e3	33.98658	-117.8726174	4407	Chinese Restaurant	630	245	10	8
9	33.98168506	-117.8252293	Pieology Pizzeria	51f6cf0f5019f93c07c778b2	34.02739032	-117.8365611	5194	Pizza Place	1511	712	12	8.4
9	33.98168506	-117.8252293	Colima Burgers	4b665ea4f964a520571f2be3	33.987875	-117.869913	4181	Burger Joint	1051	452	12	7.9
9	33.98168506	-117.8252293	PetSmart	4b33cc5ef964a520671f25e3	34.02856109	-117.8323076	5258	Pet Store	1796	571	6	8.4
9	33.98168506	-117.8252293	Curry India Bistro	5017ef8ce4b033fdafaced89	33.97564341	-117.8383234	1383	Indian Restaurant	347	218	8	7.1
9	33.98168506	-117.8252293	Paris Baguette	537fb4a4498ea6ffdcf8a029	33.99878721	-117.8454321	2664	Bakery	304	139	3	7.4
9	33.98168506	-117.8252293	Mayan Tacos	4b8dd5b8f964a520da0f33e3	34.00916284	-117.8607273	4482	Mexican Restaurant	891	332	19	7.9
9	33.98168506	-117.8252293	Chipotle Mexican Grill	4b4bed0cf964a52065ab26e3	34.02781382	-117.8338187	5195	Mexican Restaurant	4968	1657	22	8.2
9	33.98168506	-117.8252293	Ootoro Japanese Restaurant	4fc58cece4b0a4bd4303de86	33.98834141	-117.8705509	4248	Sushi Restaurant	721	350	6	7.8
9	33.98168506	-117.8252293	Boulevard 574	533eff35498e884af22cc81d	34.03058758	-117.8093418	5637	American Restaurant	209	109	39	8.4
9	33.98168506	-117.8252293	Sushi Koshu	507f5c10e4b0bffc6e83dd06	33.99807804	-117.8550875	3305	Japanese Restaurant	361	218	4	7.5
9	33.98168506	-117.8252293	See's Candies	4dbc3726815439392f9c4ced	34.00117562	-117.8124731	2468	Candy Store	204	86	1	7.3
9	33.98168506	-117.8252293	New York Pizzeria	4aa43693f964a520d64520e3	34.0202428	-117.864336	5607	Pizza Place	974	261	8	8.4
9	33.98168506	-117.8252293	Deli On Valley	526eaad1498e6099128f7d21	34.006876	-117.864768	4602	Sandwich Place	166	38	4	7.9
9	33.98168506	-117.8252293	HomeGoods	4fd7fcfde4b0b755206bbed6	34.02805573	-117.8377854	5290	Furniture / Home Store	488	249	1	8.2
9	33.98168506	-117.8252293	Yojie Japanese Fondue | Diamond Bar	50adb8ebb0edcdc6eae70c1b	33.97587629	-117.8386045	1393	Japanese Restaurant	786	417	3	7
9	33.98168506	-117.8252293	Kohl's	4b78c6abf964a520f3e12ee3	34.028191	-117.831322	5207	Department Store	2036	804	4	8.1
9	33.98168506	-117.8252293	Diamond Palace Seafood	4bddc1a90ee3a593c7842eb0	34.02181858	-117.8119007	4633	Chinese Restaurant	1250	612	11	7.8
10	34.27441121	-118.5015473	Saj Bakery	52799b51498ee93cd7b41ce2	34.27356107	-118.5013103	97	Bakery	2416	767	19	9.2
10	34.27441121	-118.5015473	Robeks Fresh Juices & Smoothies	4b7c32d6f964a520e7832fe3	34.27112609	-118.5016575	365	Smoothie Shop	488	201	5	8.8
10	34.27441121	-118.5015473	Trader Joe's	4afc5b9af964a520e52122e3	34.27267122	-118.5017967	195	Grocery Store	4967	1278	16	8.3
10	34.27441121	-118.5015473	The Granada Hills Gourmet Food Trucks Explosion (Food Trucks Row)	4e0299d752b10583352c14ff	34.26478446	-118.5118813	1432	Food Truck	3230	1133	43	8.9
10	34.27441121	-118.5015473	Petit Park	4bba9808cf2fc9b67bcaa102	34.26386687	-118.4974408	1233	Park	1838	406	8	8.5
10	34.27441121	-118.5015473	Starbucks	4c0aa75d340720a150d48693	34.272224	-118.50414	340	Coffee Shop	998	306	6	7.8
10	34.27441121	-118.5015473	Good Pho You	4c8977262e333704674dbb41	34.263669	-118.501869	1196	Noodle House	1872	669	16	8.4
10	34.27441121	-118.5015473	JéJé : Chicken	4dcad52d52b1c2222a8c8bfb	34.27163649	-118.501292	309	Falafel Restaurant	319	174	7	7.6
10	34.27441121	-118.5015473	Main Kitchen Cafe	535137ae498e4929e63903f9	34.26492883	-118.5028099	1061	Café	140	113	7	8
10	34.27441121	-118.5015473	Starbucks	4c62b91286b6be9a07b48c34	34.271866	-118.49975	328	Coffee Shop	589	162	2	7.6
10	34.27441121	-118.5015473	VONS	4afc6d5bf964a520902222e3	34.27138529	-118.4986931	427	Supermarket	3386	659	7	7.6
10	34.27441121	-118.5015473	Target	4bb11797f964a520b7793ce3	34.27317393	-118.5031292	200	Big Box Store	10167	2222	13	7.5
10	34.27441121	-118.5015473	Asahi Sushi	41c0d000f964a520941e1fe3	34.25902541	-118.5026228	1715	Japanese Restaurant	1903	691	19	8.3
10	34.27441121	-118.5015473	Sweet Basil Thai Bistro	5287e54f11d2b04c5f5b519b	34.264293	-118.501962	1126	Thai Restaurant	60	35	2	7.8
10	34.27441121	-118.5015473	Aliso Canyon Park	4be8b74de1b39521cb4021c1	34.28025708	-118.5274172	2467	Trail	412	201	2	8.2
10	34.27441121	-118.5015473	Hot Chili	4c23af15f7ced13af49b216d	34.27171	-118.5025424	314	Mexican Restaurant	279	104	4	7.5
10	34.27441121	-118.5015473	Joe's Cafe	50838d43e4b0524965c89864	34.26500965	-118.5220297	2155	Café	1022	535	34	8.5
10	34.27441121	-118.5015473	Starbucks	4b72d70bf964a520338b2de3	34.25681105	-118.4997245	1966	Coffee Shop	3856	950	12	8.3
10	34.27441121	-118.5015473	Menchie's Frozen Yogurt	4b6f8b8cf964a52020f52ce3	34.26456522	-118.5229761	2255	Frozen Yogurt Shop	2028	759	15	8.5
10	34.27441121	-118.5015473	Ninong's Pastries & Cafe	4bc2181df8219c74bf43b410	34.26509234	-118.520047	1993	Café	949	515	19	8.3
10	34.27441121	-118.5015473	O. Tofu House Korean BBQ	51e5f10d498eec1a5ed6bdad	34.256764	-118.500408	1967	Korean Restaurant	495	238	7	8.2
10	34.27441121	-118.5015473	Knollwood Country Club	4c1c222afcf8c9b6dfa4a90b	34.28929903	-118.4996738	1666	Golf Course	1480	766	3	8
10	34.27441121	-118.5015473	A & W Barbecue Seafood Restaurant	4b6096bbf964a52004ef29e3	34.271848	-118.500394	304	Chinese Restaurant	1244	547	15	7.4
10	34.27441121	-118.5015473	Western Bagel	4b197dfdf964a5204dde23e3	34.27185758	-118.5013415	284	Bagel Shop	876	345	6	7.3
10	34.27441121	-118.5015473	99¢ Only Stores	4bb912c753649c74b5ae47fb	34.26421497	-118.503745	1152	Miscellaneous Shop	1209	342	5	7.6
10	34.27441121	-118.5015473	In-N-Out Burger	4b21c21df964a5201f4124e3	34.25007773	-118.5019711	2709	Burger Joint	3238	1451	21	8.7
10	34.27441121	-118.5015473	Staples	4b1dc2e9f964a520fb1424e3	34.264048	-118.503498	1167	Paper / Office Supplies Store	851	406	3	7.6
10	34.27441121	-118.5015473	Rincome Restaurant	4b3bc7b1f964a520047b25e3	34.25722386	-118.5040187	1926	Thai Restaurant	1092	411	12	8
10	34.27441121	-118.5015473	Presto Pasta	4ffdbb68e4b0cb68a233091c	34.26533066	-118.5243272	2326	Italian Restaurant	894	325	9	8.2
10	34.27441121	-118.5015473	A Sweet Design	4d28cb28068e8cfa7858c94c	34.26496761	-118.5216021	2123	Cupcake Shop	1022	343	16	8.1
10	34.27441121	-118.5015473	Chipotle Mexican Grill	52d32be9498ed0e47a4aca24	34.25773491	-118.5020857	1857	Mexican Restaurant	332	179	2	7.9
10	34.27441121	-118.5015473	Numero Uno Pizza	4bd39a1577b29c746f4e9182	34.26503517	-118.522123	2161	Pizza Place	180	107	3	7.9
10	34.27441121	-118.5015473	T.J. Maxx	4b67375df964a520e9412be3	34.26550723	-118.5262048	2475	Department Store	1485	511	5	8.1
10	34.27441121	-118.5015473	Michaels	4b33b60af964a520841d25e3	34.263265	-118.525324	2514	Arts & Crafts Store	2107	772	9	8.1
10	34.27441121	-118.5015473	Pieology Pizzeria	52014375498ea617f2c9e68c	34.2656166	-118.5249932	2368	Pizza Place	410	243	13	8
10	34.27441121	-118.5015473	Starbucks	4b24842ff964a5204f6824e3	34.28544261	-118.5013186	1228	Coffee Shop	2595	766	10	7.5
10	34.27441121	-118.5015473	Vincenzo's Pizza	4bf1979fa09076b066e529d4	34.271395	-118.5025102	347	Pizza Place	332	151	7	7.2
10	34.27441121	-118.5015473	CVS/pharmacy	4b6ddfd2f964a520aa972ce3	34.26352812	-118.5247092	2451	Pharmacy	1027	250	2	8
10	34.27441121	-118.5015473	Lola's Baja Tacos	539f9315498efdb7bffe1fb8	34.26508989	-118.5031805	1048	Taco Place	143	85	6	7.3
10	34.27441121	-118.5015473	CJ Grand Spa	4db8ab914df0ded98bc28955	34.25566253	-118.503534	2095	Spa	297	116	3	7.7
10	34.27441121	-118.5015473	Ralphs	4b6ef7a5f964a520bcd32ce3	34.26338874	-118.5240707	2408	Supermarket	3847	919	13	7.9
10	34.27441121	-118.5015473	Belgium Waffle Haus	54823ea2498e1787e8fde8af	34.26430415	-118.5270409	2601	Café	234	136	11	8
10	34.27441121	-118.5015473	Zankou Chicken	4fd76fa8e4b0ac0b1ea856d3	34.26506085	-118.5249087	2387	Middle Eastern Restaurant	1478	438	12	7.8
10	34.27441121	-118.5015473	Regency Granada Hills 9	4b135c2bf964a5209b9623e3	34.25668094	-118.4989953	1987	Movie Theater	3621	1253	22	7.6
10	34.27441121	-118.5015473	El Queso Grande	4ba42197f964a520a68438e3	34.25543	-118.501594	2112	Mexican Restaurant	619	334	14	7.7
10	34.27441121	-118.5015473	Sprouts Farmers Market	4e4f2482483bb770490c5f1a	34.26645752	-118.5242303	2266	Market	3148	649	21	7.7
10	34.27441121	-118.5015473	Italia Bakery & Deli	4b6351b7f964a520e8712ae3	34.27356567	-118.5009967	106	Restaurant	611	200	6	7
10	34.27441121	-118.5015473	Odyssey	4b6211e0f964a520a1332ae3	34.28255022	-118.473055	2773	American Restaurant	2442	1810	14	8
10	34.27441121	-118.5015473	Ali Baba Persian Restaurant	4bfc2c46e9d8c928b224b2c7	34.26509782	-118.515795	1671	Middle Eastern Restaurant	437	250	6	7.5
10	34.27441121	-118.5015473	C F Food Kitchen & Catering	4bf007f625afb713c3cd4a6f	34.25774217	-118.485316	2381	American Restaurant	188	126	5	7.7
11	34.03042188	-118.0681807	Hikari Sushi Bar	4bb2b6b9715eef3b9fa685bb	34.03596664	-118.0825732	1464	Japanese Restaurant	1249	513	11	8.3
11	34.03042188	-118.0681807	Pico Rivera Golf Course	4bd218fe9854d13ab1f1fa4d	34.01872177	-118.0597651	1516	Golf Course	741	250	7	8.2
11	34.03042188	-118.0681807	Legg Lake Park	4b523ee0f964a520597227e3	34.0377766	-118.0636467	919	Park	1725	657	11	7.8
11	34.03042188	-118.0681807	Triple B Clays Shotgun Sports Park	4b786beef964a52004cd2ee3	34.03799115	-118.0703473	865	Sporting Goods Shop	686	463	3	7.6
11	34.03042188	-118.0681807	Norms Restaurant	537e0063498e6816a1f108ee	34.01046216	-118.0808127	2509	American Restaurant	671	355	11	8.6
11	34.03042188	-118.0681807	Victoria's Secret PINK	4bc21351abf49521cae6c193	34.03562621	-118.0842304	1589	Lingerie Store	955	382	0	7.9
11	34.03042188	-118.0681807	AMC Montebello 10	4b6f02f6f964a520c3d62ce3	34.03376615	-118.092673	2289	Movie Theater	3435	1534	18	8.3
11	34.03042188	-118.0681807	Whittier Narrows Regional Park	4bf04d50d4e4d13a8f2316a7	34.03598185	-118.0558205	1297	Park	2047	1010	10	7.7
11	34.03042188	-118.0681807	BJ's Restaurant and Brewhouse	4aa9614df964a520605320e3	34.03625065	-118.0853625	1712	American Restaurant	7419	3082	46	7.9
11	34.03042188	-118.0681807	Build-A-Bear Workshop	4d62c775338bb60ca01743bd	34.03591706	-118.084791	1649	Toy / Game Store	257	147	2	7.8
11	34.03042188	-118.0681807	Whittier Narrows Tennis Center	4c49139620ab1b8d5d1e4a16	34.04317536	-118.057284	1739	Other Great Outdoors	652	124	4	7.9
11	34.03042188	-118.0681807	Pico Park	4b76163bf964a520c73b2ee3	34.00803223	-118.074605	2561	Park	968	301	2	8.3
11	34.03042188	-118.0681807	Karina's Tacos	4db6368a0cb6729b6ab50168	34.01192708	-118.0863457	2654	Mexican Restaurant	128	37	6	8.2
11	34.03042188	-118.0681807	Victoria's Secret	50605ce43d7c47f05ba414b7	34.0359298	-118.0831391	1510	Lingerie Store	411	130	0	7.5
11	34.03042188	-118.0681807	In-N-Out Burger	4b2fcc9cf964a52025f024e3	34.00044662	-118.0831361	3610	Burger Joint	3929	1880	41	9
11	34.03042188	-118.0681807	Playa Baja #2	4d7ab43976bbb1f747af7ac1	34.01577849	-118.0983085	3222	Mexican Restaurant	701	126	8	8.4
11	34.03042188	-118.0681807	Whittier Narrows Golf Course	4c1cfd7fb9f876b0d3ca7c46	34.05254484	-118.0765142	2579	Golf Course	2229	295	2	7.9
11	34.03042188	-118.0681807	Original Tommy's Hamburgers	4b936e62f964a520ae4334e3	33.99949787	-118.0790591	3585	Burger Joint	1139	549	8	8.9
11	34.03042188	-118.0681807	SEPHORA	4f59ea9fe4b09c8f90c364f8	34.03594281	-118.0858827	1744	Cosmetics Shop	223	96	0	7.5
11	34.03042188	-118.0681807	Macy's	4bd1175d9854d13a5327f94d	34.03592193	-118.0818587	1402	Department Store	2362	1166	2	7.3
11	34.03042188	-118.0681807	Applebee's	4c4a65f146240f47a02fc5f1	34.034437	-118.092078	2249	American Restaurant	2319	1248	23	7.7
11	34.03042188	-118.0681807	See's Candies	4b67b0b9f964a520eb5a2be3	34.035954	-118.0836189	1551	Candy Store	126	98	1	7.4
11	34.03042188	-118.0681807	Starbucks	4c58cf19b05c1b8d7c76d4b1	34.03620884	-118.0839238	1588	Coffee Shop	2008	573	5	7.3
11	34.03042188	-118.0681807	El Pescador Bar & Grill	5584ef34498e9629e4729425	34.01563528	-118.0977454	3185	Mexican Restaurant	76	40	5	8.1
11	34.03042188	-118.0681807	Progress Brewing	523d1ac411d26ab2dd8f9c15	34.04993101	-118.0598165	2304	Brewery	809	235	10	7.6
11	34.03042188	-118.0681807	Hot Topic	4bfc9369f61dc9b674e59dde	34.03605279	-118.084568	1636	Clothing Store	342	203	3	7.3
11	34.03042188	-118.0681807	El Oasis	4c378ed20a71c9b6c5123fc9	33.998808	-118.0791337	3661	Taco Place	168	77	6	8.5
11	34.03042188	-118.0681807	Honeyboba	5103151be4b0db110bf0c7a8	34.04958607	-118.0825389	2511	Tea Room	1599	608	13	7.6
11	34.03042188	-118.0681807	Bath & Body Works	4c9b7d30df1b9eb01d4a6e8f	34.03600347	-118.0834134	1536	Cosmetics Shop	596	179	0	7.3
11	34.03042188	-118.0681807	Grant Rea Park	4b647da5f964a5208eb72ae3	34.01714948	-118.0907925	2556	Baseball Field	799	326	2	7.6
11	34.03042188	-118.0681807	Chop Teriyaki	4c9e7b0154c8a1cd0b498e4b	34.00329798	-118.090524	3656	Asian Restaurant	455	161	8	8.3
11	34.03042188	-118.0681807	Green Crush	4fe0b4f6e4b096aa58112e84	34.03598096	-118.0847738	1651	Juice Bar	254	114	4	7.3
11	34.03042188	-118.0681807	Olive Garden	5187f7b0498ee4fb7bcd330e	34.03738458	-118.0822417	1511	Italian Restaurant	1055	653	21	7.2
11	34.03042188	-118.0681807	Pho Filet	4b3aed0cf964a520d86f25e3	34.062913	-118.0634621	3642	Vietnamese Restaurant	1087	489	8	8.2
11	34.03042188	-118.0681807	Tacos Omana	4b48369bf964a5202a4a26e3	34.05172706	-118.0466578	3092	Taco Place	530	243	9	7.8
11	34.03042188	-118.0681807	Tito's Market	4a9aee4ef964a520a53320e3	34.061984	-118.054769	3724	Argentinian Restaurant	1283	600	18	8.2
11	34.03042188	-118.0681807	Frumento's Italian Market	4b8b09a2f964a520918f32e3	34.01616589	-118.1002117	3354	Deli / Bodega	520	235	10	7.9
11	34.03042188	-118.0681807	7-Eleven	4b4534f9f964a520020826e3	34.04251891	-118.0923314	2603	Convenience Store	656	165	0	7.5
11	34.03042188	-118.0681807	Casa Garcia	4b7739a5f964a52084892ee3	34.00307937	-118.0907106	3685	Mexican Restaurant	1043	457	22	8.1
11	34.03042188	-118.0681807	Zankou Chicken	4b0b3996f964a520fe2e23e3	34.0114097	-118.10849	4279	Middle Eastern Restaurant	907	400	13	8.6
11	34.03042188	-118.0681807	Forever 21	4b5e573ef964a520708a29e3	34.0365153	-118.0842733	1632	Women's Store	1876	885	10	7.2
11	34.03042188	-118.0681807	President Thai	4b48cb79f964a520505726e3	33.99844869	-118.0789953	3696	Thai Restaurant	758	373	15	8.1
11	34.03042188	-118.0681807	FYE	4bb41b5b0cbcef3bb6be582a	34.03605193	-118.0851854	1689	Record Shop	359	221	2	7.2
11	34.03042188	-118.0681807	Plaza Market	4e1e34c8fa760f49648d14c4	34.05616455	-118.0302371	4523	Liquor Store	650	140	6	8.9
11	34.03042188	-118.0681807	Costco Wholesale	4b11d635f964a520b78523e3	34.03375911	-118.0972338	2705	Department Store	7320	2081	17	7.5
11	34.03042188	-118.0681807	Tozai Foods Market	4b4f7a3ef964a520320827e3	34.04543996	-118.0996573	3350	Market	527	172	8	7.8
11	34.03042188	-118.0681807	Yogurtland	55c7d797498e4400fa742f79	34.036036	-118.083705	1562	Frozen Yogurt Shop	30	14	1	7.1
11	34.03042188	-118.0681807	Jiouding Hot Pot	552b3024498e4b2863e05527	34.052229	-118.090633	3190	Hotpot Restaurant	94	73	1	7.7
11	34.03042188	-118.0681807	Bachan's Take Out	4b772d90f964a52027852ee3	34.0454183	-118.0995316	3339	Japanese Restaurant	868	287	12	7.8
11	34.03042188	-118.0681807	The Habit Burger Grill	57e0d2c7498e694eef3f6a59	34.0187746	-118.1059248	3715	Burger Joint	40	30	0	8
12	34.01061808	-118.1474892	The Melting Pot	4ae2589ef964a5207d8d21e3	34.03067	-118.1517	2265	Restaurant	2316	1725	31	9.1
12	34.01061808	-118.1474892	Disney Store	52844d4111d2e86d67d25246	34.00635645	-118.1498665	522	Toy / Game Store	567	480	5	8.5
12	34.01061808	-118.1474892	Citadel Outlets	4a3ae617f964a52067a01fe3	34.0068251	-118.1524481	622	Shopping Mall	43821	25093	162	8.4
12	34.01061808	-118.1474892	Old Navy Outlet	4b3005a7f964a52097f424e3	34.00679265	-118.1541824	750	Clothing Store	1431	1006	5	8.3
12	34.01061808	-118.1474892	Chronis Famous Sandwich Shop	4ad4fbd8f964a520190121e3	34.01809	-118.14541	853	Sandwich Place	389	221	9	8.4
12	34.01061808	-118.1474892	Nike Factory Store	4cdda1c2ffcf3704f5cd0c82	34.00809924	-118.1515339	466	Sporting Goods Shop	4618	2465	12	8
12	34.01061808	-118.1474892	Tacos Baja Ensenada	4a41313af964a520f1a41fe3	34.01997761	-118.1543326	1218	Mexican Restaurant	1911	912	42	8.9
12	34.01061808	-118.1474892	Perry Ellis - Citadel Outlets	4dcc248bcc3f83065bdaf3f3	34.00628125	-118.1537533	753	Men's Store	758	425	1	8.2
12	34.01061808	-118.1474892	Tommy Hilfiger Company Store	4c97b243533aa093ad2fdc45	34.00766974	-118.1525224	568	Clothing Store	940	646	4	7.9
12	34.01061808	-118.1474892	Ruby's Diner	4b10b828f964a520177523e3	34.00639219	-118.1527452	675	Diner	4462	3403	41	8
12	34.01061808	-118.1474892	kate spade new york outlet	5298537e11d25bd899682455	34.00807656	-118.1519396	498	Women's Store	380	291	0	7.8
12	34.01061808	-118.1474892	La Monarca Bakery	4bafc003f964a520a81d3ce3	34.018056	-118.1478524	828	Bakery	359	176	13	8
12	34.01061808	-118.1474892	Michael Kors Outlet	4ec03c6a0aaf6450bae57c6d	34.00725016	-118.1527623	614	Women's Store	885	700	3	7.8
12	34.01061808	-118.1474892	Tacos Al Vapor El Canelo	51848b2a498e67375e50a5be	34.01608276	-118.1381607	1054	Taco Place	25	21	5	8.1
12	34.01061808	-118.1474892	Rocky Mountain Chocolate Factory	4a79e73df964a520f4e71fe3	34.007609	-118.1530413	612	Dessert Shop	442	311	1	7.8
12	34.01061808	-118.1474892	Tutti Frutti	4c34134a16adc928deafc49c	34.00577545	-118.1529164	735	Snack Place	265	221	4	7.8
12	34.01061808	-118.1474892	GUESS	4ca8e44d76d3a093728c1a6b	34.00751333	-118.1527452	595	Accessories Store	833	583	1	7.7
12	34.01061808	-118.1474892	Waba Grill Teriyaki House	4bd89823e914a59302b553fa	34.01832768	-118.1486336	864	Asian Restaurant	467	159	6	7.8
12	34.01061808	-118.1474892	adidas Factory Outlet	4cad120914c3370494ebf53b	34.00751383	-118.1508711	465	Shoe Store	1384	937	7	7.6
12	34.01061808	-118.1474892	Starbucks	4a88748cf964a520810620e3	34.005613	-118.152584	729	Coffee Shop	5008	3108	13	7.7
12	34.01061808	-118.1474892	Columbia Sportswear Company	4cef561d5de16ea82ffcbf96	34.00787325	-118.15135	469	Clothing Store	469	375	5	7.6
12	34.01061808	-118.1474892	Sergio's Tacos	3fd66200f964a520bef11ee3	34.00571498	-118.1633663	1563	Taco Place	540	181	9	8.4
12	34.01061808	-118.1474892	Auntie Anne's	4b6b70d1f964a52006092ce3	34.00723	-118.1537862	692	Snack Place	345	287	2	7.7
12	34.01061808	-118.1474892	Aéropostale	4d07f1b3611ff04d846818fb	34.00720622	-118.1512213	512	Clothing Store	450	350	2	7.5
12	34.01061808	-118.1474892	In-N-Out Burger Truck	4aa94f6ff964a520045320e3	34.01081302	-118.1612297	1268	Food Truck	394	281	2	8
12	34.01061808	-118.1474892	Jamba Juice Citadel Outlet Mall	55553498498e12198e3b7194	34.00583353	-118.1527368	719	Smoothie Shop	100	95	0	7.5
12	34.01061808	-118.1474892	Tamayo Restaurant	4b3bcdcbf964a520807b25e3	34.01573782	-118.156518	1009	Mexican Restaurant	677	427	9	7.7
12	34.01061808	-118.1474892	Nicola's	3fd66200f964a52027ef1ee3	34.01641309	-118.1470213	646	Cocktail Bar	252	116	4	7.4
12	34.01061808	-118.1474892	Carter's	4c643feed646be9a6b7b09fd	34.00677006	-118.1540879	744	Kids Store	442	310	1	7.4
12	34.01061808	-118.1474892	Home Style Donuts	4c6ea46ec5243704577b2beb	34.022342	-118.15686	1565	Donut Shop	113	56	2	7.9
12	34.01061808	-118.1474892	Vans	4b788699f964a52048d42ee3	34.00698987	-118.1540638	728	Shoe Store	700	582	0	7.4
12	34.01061808	-118.1474892	Nawa Thai Cuisine	530d03da11d2f58bf4d9214f	34.02359554	-118.1335177	1936	Thai Restaurant	48	32	2	8.1
12	34.01061808	-118.1474892	Record Jungle	5144fcdbe4b09e1f587cc771	34.01448801	-118.1294091	1723	Record Shop	63	37	1	7.9
12	34.01061808	-118.1474892	Starbucks	505cd281e4b05db61b3effff	34.01911885	-118.1536137	1102	Coffee Shop	1341	324	12	7.5
12	34.01061808	-118.1474892	The Coffee Bean & Tea Leaf	549d9442498e77d5dbda8dc2	33.9951782	-118.1426032	1776	Coffee Shop	300	111	4	7.9
12	34.01061808	-118.1474892	Rosewood Park	4ba584c0f964a520af0e39e3	34.00222551	-118.1552982	1179	Park	873	215	6	7.5
12	34.01061808	-118.1474892	Canton City	4c684a29d9c7c9b64212c41a	34.01566057	-118.1299462	1713	Chinese Restaurant	308	126	8	7.8
12	34.01061808	-118.1474892	DoubleTree by Hilton Hotel Los Angeles - Commerce	4bd1c7065e0cce726af9a184	34.00375622	-118.1505333	813	Hotel	11862	1373	24	7.3
12	34.01061808	-118.1474892	Churros Don Abel	4f77a748e4b0e5e2baf06170	34.01911609	-118.1516653	1021	Food Truck	75	55	4	7.4
12	34.01061808	-118.1474892	Fossil	4eb314309a5254768684d906	34.00770377	-118.1511168	466	Accessories Store	292	237	1	7.1
12	34.01061808	-118.1474892	Coach Outlet	4e9475b693addf55cb85ec2a	34.00784711	-118.151991	517	Outlet Store	1472	1086	10	7.1
12	34.01061808	-118.1474892	Banana Republic	4ba51d64f964a52021df38e3	34.0063	-118.153442	729	Clothing Store	1332	953	2	7.2
12	34.01061808	-118.1474892	Astro Burgers	4b453a0ff964a520870826e3	34.024485	-118.141348	1644	American Restaurant	683	238	4	7.6
12	34.01061808	-118.1474892	Broguiere's Farm Fresh Dairy	4c4b65355609c9b669521091	34.00593899	-118.1186657	2710	Grocery Store	1036	353	24	8.5
12	34.01061808	-118.1474892	Amy's Pastry	4b018833f964a5202a4322e3	34.021975	-118.122802	2605	Bakery	770	385	19	8.3
12	34.01061808	-118.1474892	El Gallo Giro	4c119112416620a1d567d9e4	34.01823837	-118.14854	853	Mexican Restaurant	345	210	5	7.2
12	34.01061808	-118.1474892	CVS Pharmacy	5032cc99e4b0a85e88cfaafa	34.02012992	-118.1578017	1423	Pharmacy	162	79	2	7.4
12	34.01061808	-118.1474892	Gamestop	4b6b8eaef964a520c70f2ce3	34.01795805	-118.14757	817	Video Game Store	73	45	2	7.1
12	34.01061808	-118.1474892	The Coffee Bean & Tea Leaf	4b3bdcb6f964a520e67c25e3	34.03501783	-118.1620497	3030	Coffee Shop	1705	479	14	8.8
12	34.01061808	-118.1474892	The Home Depot	4ba7d7aaf964a52027b839e3	33.987038	-118.134712	2877	Hardware Store	2047	657	7	8.6
13	34.04105058	-118.0254649	Plaza Market	4e1e34c8fa760f49648d14c4	34.05616455	-118.0302371	1739	Liquor Store	650	140	6	8.9
13	34.04105058	-118.0254649	Starbucks	55f3af31498e4fd0eed27fab	34.030636	-118.00872	1931	Café	408	135	4	8.3
13	34.04105058	-118.0254649	Tepeyac & Tequila Sports Bar	4d902e083bfef04d3f74be86	34.02844653	-118.0154908	1677	Mexican Restaurant	2598	1213	35	8
13	34.04105058	-118.0254649	Hamburger Express	4b5fafcbf964a52029c829e3	34.03212319	-118.0256751	993	Burger Joint	362	176	6	7.6
13	34.04105058	-118.0254649	CVS	4c33c96d66e40f47039cc88b	34.04532721	-118.0300187	634	Pharmacy	588	170	0	7.4
13	34.04105058	-118.0254649	California Country Club	4bedba38e24d20a198e57114	34.03798703	-118.0152723	1000	Golf Course	403	260	2	7.4
13	34.04105058	-118.0254649	Starbucks	574874aa498eed1b765466f2	34.04292333	-118.0324086	673	Coffee Shop	134	37	0	7.3
13	34.04105058	-118.0254649	El Taco Man	4e93943c5503852c34b50efb	34.06139374	-118.0236664	2270	Mexican Restaurant	629	110	11	8
13	34.04105058	-118.0254649	Art's Burgers	4d69c76eb6f46dcbddda27b2	34.0673866	-118.0256393	2931	Burger Joint	569	213	12	8.3
13	34.04105058	-118.0254649	El Taco Nazo	4b707520f964a520a11b2de3	34.05234933	-118.001293	2559	Mexican Restaurant	860	465	13	8.1
13	34.04105058	-118.0254649	Tacos Omana	4b48369bf964a5202a4a26e3	34.05172706	-118.0466578	2287	Taco Place	530	243	9	7.8
13	34.04105058	-118.0254649	Viet Huong	4b58b315f964a520526628e3	34.06307956	-118.040592	2821	Vietnamese Restaurant	1088	478	15	8.1
13	34.04105058	-118.0254649	La familia Restaurant	4c68292be1da1b8dbf699fc3	34.04743552	-118.0281401	752	Restaurant	137	61	4	7.2
13	34.04105058	-118.0254649	7-Eleven	4b6ff58bf964a52064012de3	34.04076101	-118.0367133	1038	Convenience Store	1126	240	2	7.2
13	34.04105058	-118.0254649	CVS/pharmacy	4c9115a92626a1cd19432f6b	34.06217135	-118.0208337	2389	Pharmacy	414	165	0	7.7
13	34.04105058	-118.0254649	Wingstop	5410c288498e26daab54028f	34.04266696	-118.0321571	642	Wings Joint	35	14	0	7
13	34.04105058	-118.0254649	Waba Grill	4c1ab98db306c9281b1c61b7	34.02838873	-118.015759	1669	Restaurant	1314	476	6	7.3
13	34.04105058	-118.0254649	Whittier Narrows Tennis Center	4c49139620ab1b8d5d1e4a16	34.04317536	-118.057284	2944	Other Great Outdoors	652	124	4	7.9
13	34.04105058	-118.0254649	In-N-Out Burger	4a74db69f964a520c9df1fe3	34.01944105	-117.9873142	4263	Burger Joint	4273	1506	26	9
13	34.04105058	-118.0254649	Original Tommy's Hamburgers	4ab15699f964a520136920e3	34.06735361	-118.0264914	2929	Burger Joint	925	507	13	7.8
13	34.04105058	-118.0254649	Tito's Market	4a9aee4ef964a520a53320e3	34.061984	-118.054769	3568	Argentinian Restaurant	1283	600	18	8.2
13	34.04105058	-118.0254649	Whittier Narrows Regional Park	4bf04d50d4e4d13a8f2316a7	34.03598185	-118.0558205	2856	Park	2047	1010	10	7.7
13	34.04105058	-118.0254649	Golden Cue Billiards	4c466c2376d72d7fe5533a4d	34.04603255	-118.030892	747	Pool Hall	420	85	6	7
13	34.04105058	-118.0254649	Jersey Mike's Subs	57da2ea4498e4b5b43481848	34.03083225	-118.0089953	1897	Sandwich Place	12	8	0	7.3
13	34.04105058	-118.0254649	Pico Rivera Golf Course	4bd218fe9854d13ab1f1fa4d	34.01872177	-118.0597651	4023	Golf Course	741	250	7	8.2
13	34.04105058	-118.0254649	Fry's Electronics	4a870634f964a5202b0220e3	34.03075387	-118.0069882	2054	Electronics Store	13400	4696	45	7.3
13	34.04105058	-118.0254649	King Taco Restaurant	4ac967ccf964a520d9bf20e3	34.07622358	-118.0214992	3932	Mexican Restaurant	3087	1174	24	8.2
13	34.04105058	-118.0254649	Chris' Burgers	4b75b400f964a5204b1e2ee3	34.05409866	-117.9767794	4719	Burger Joint	1597	432	38	8.9
13	34.04105058	-118.0254649	El Pescador	5338ca18498eee10c46aea0f	34.065335	-118.023526	2709	Mexican Restaurant	118	62	3	7.5
13	34.04105058	-118.0254649	Tomo Sushi & Teriyaki	4bd23d7241b9ef3b43b9fde5	34.05104041	-118.0369208	1534	Japanese Restaurant	270	114	4	7.1
13	34.04105058	-118.0254649	King Taco Restaurant	4b49099cf964a5202c6326e3	34.06246	-118.044512	2960	Burrito Place	1935	863	19	7.6
13	34.04105058	-118.0254649	Legg Lake Park	4b523ee0f964a520597227e3	34.0377766	-118.0636467	3540	Park	1725	657	11	7.8
13	34.04105058	-118.0254649	GameStop	4bf30452706e20a10abfa798	34.06327	-118.020472	2515	Video Game Store	338	106	1	7.4
13	34.04105058	-118.0254649	Pho Filet	4b3aed0cf964a520d86f25e3	34.062913	-118.0634621	4266	Vietnamese Restaurant	1087	489	8	8.2
13	34.04105058	-118.0254649	Progress Brewing	523d1ac411d26ab2dd8f9c15	34.04993101	-118.0598165	3319	Brewery	809	235	10	7.6
13	34.04105058	-118.0254649	Goody's	4c126b85a9c220a1adec539d	34.0702655	-118.02954	3273	American Restaurant	360	154	8	7.6
13	34.04105058	-118.0254649	Garcia's Fruits	4e76888d7d8b9176038e1510	34.06322801	-118.0581051	3893	Ice Cream Shop	314	186	5	7.8
13	34.04105058	-118.0254649	B Nutritious	5553aa42498edfd42693428c	34.06883918	-118.0361765	3247	Restaurant	86	21	3	7.5
13	34.04105058	-118.0254649	Shakey's Pizza Parlor	4b3ad89cf964a520216f25e3	34.06940161	-118.0293669	3176	Pizza Place	742	394	4	7.4
13	34.04105058	-118.0254649	Jamba Juice El Monte Shopping Center	4bb6a47346d4a593239bc6c0	34.07158688	-118.0247305	3399	Juice Bar	1328	465	4	7.5
13	34.04105058	-118.0254649	Cyber Yogurt	4bb6c1beef159c74a38276f7	34.06875372	-118.036144	3237	Ice Cream Shop	100	55	5	7.4
13	34.04105058	-118.0254649	Vineland Drive-in Theater	4bbfebd02a89ef3bc4e5ef88	34.05353961	-117.9888983	3648	Indie Movie Theater	3035	2002	45	7.6
13	34.04105058	-118.0254649	In-N-Out Burger	4ae364bcf964a5206c9421e3	34.06766288	-117.9735196	5632	Burger Joint	7719	4139	53	9.2
13	34.04105058	-118.0254649	El Sombrero	4ba6da72f964a520957339e3	34.0739	-118.041371	3940	Mexican Restaurant	695	235	13	7.6
13	34.04105058	-118.0254649	Foo Foo Tei	4ad93103f964a520f71821e3	34.01964604	-117.9773685	5036	Noodle House	3941	1981	44	8.2
13	34.04105058	-118.0254649	Starbucks Coffee	4cd84cd5145fa1cd18c305bd	34.0149613	-118.034277	3015	Coffee Shop	58	16	0	7.2
13	34.04105058	-118.0254649	Taco Nazo	4ad2a5dcf964a52068e220e3	34.06252	-118.0623793	4159	Mexican Restaurant	1017	511	18	7.6
13	34.04105058	-118.0254649	Starbucks	5061d8b5e4b0c3acc9c8cead	34.07694003	-118.0404628	4227	Coffee Shop	1754	488	6	7.6
13	34.04105058	-118.0254649	Food 4 Less	4c77edf1748cb7130c253468	34.06907494	-117.9788956	5308	Miscellaneous Shop	1518	406	2	8.2
13	34.04105058	-118.0254649	Whittier Narrows Golf Course	4c1cfd7fb9f876b0d3ca7c46	34.05254484	-118.0765142	4879	Golf Course	2229	295	2	7.9
14	34.10034158	-117.8312973	Klatch Coffee - San Dimas	4abb7559f964a520c68320e3	34.106196	-117.822619	1031	Coffee Shop	4333	926	53	9.2
14	34.10034158	-117.8312973	Trader Joe's	4b14836bf964a5201aa423e3	34.1035104	-117.8215349	966	Grocery Store	3537	1107	16	8.9
14	34.10034158	-117.8312973	Cost Plus World Market	4bd387fd41b9ef3bea7400e6	34.104376	-117.8193086	1192	Miscellaneous Shop	693	389	2	8.7
14	34.10034158	-117.8312973	Philly's Best	4b7230e8f964a52048732de3	34.10605603	-117.8225252	1028	Sandwich Place	941	326	12	8.4
14	34.10034158	-117.8312973	The Habit Burger Grill	531240de498eadeec675d5a5	34.11166932	-117.8284307	1288	Burger Joint	480	176	2	8.7
14	34.10034158	-117.8312973	Sushi Show	504bde55e4b015de6221bb7f	34.10795652	-117.8264577	957	Sushi Restaurant	1093	598	19	8.3
14	34.10034158	-117.8312973	Starbucks	4b0c3378f964a520cd3823e3	34.106436	-117.826072	832	Coffee Shop	4078	1092	13	8
14	34.10034158	-117.8312973	Costco Wholesale	4af5ff47f964a520f4ff21e3	34.11210721	-117.8265779	1380	Warehouse Store	10493	2020	34	8.5
14	34.10034158	-117.8312973	VN Cuisine	4f836e23e4b062ce20ac646d	34.10483106	-117.8192852	1214	Vietnamese Restaurant	414	186	6	8.3
14	34.10034158	-117.8312973	Corner Bakery Cafe	4b3a7728f964a520fb6725e3	34.11430395	-117.835794	1608	Café	3627	1193	26	8.6
14	34.10034158	-117.8312973	99¢ Only Stores	4fc282d1e4b012f5ffaf13ae	34.10376066	-117.8188273	1210	Miscellaneous Shop	552	165	2	8.2
14	34.10034158	-117.8312973	Michaelangelo's Pizza	4b299f5ef964a520d5a124e3	34.10358949	-117.8183121	1250	Pizza Place	415	242	1	8.2
14	34.10034158	-117.8312973	Stater Bros. Markets	4b26a658f964a520fa7e24e3	34.10738104	-117.8363773	912	Grocery Store	1722	344	3	8
14	34.10034158	-117.8312973	Target	4aea3ad2f964a52061ba21e3	34.10405833	-117.8238416	802	Big Box Store	9129	1944	14	8
14	34.10034158	-117.8312973	In-N-Out Burger	4a85cdd2f964a52050ff1fe3	34.11670999	-117.829324	1831	Burger Joint	6213	2976	40	8.8
14	34.10034158	-117.8312973	Ulta Beauty	4e7a6606c65bb4f0b49ccc9d	34.11667224	-117.8327465	1822	Salon / Barbershop	1390	343	1	8.7
14	34.10034158	-117.8312973	Yogurtland	532ce04c498e598cc365965b	34.11168315	-117.8281863	1294	Frozen Yogurt Shop	256	89	5	8.1
14	34.10034158	-117.8312973	Jack in the Box	4b32e269f964a520901525e3	34.10701915	-117.8300638	751	Burger Joint	1237	358	1	7.8
14	34.10034158	-117.8312973	Lucky Elephant Thai Cuisine	4bc8c3cc6501c9b68bdc4029	34.10476	-117.816424	1456	Thai Restaurant	1249	621	18	8.2
14	34.10034158	-117.8312973	AMC Glendora 12	49d7ed1ff964a5207e5d1fe3	34.11645293	-117.8362342	1850	Multiplex	7147	2245	27	8.5
14	34.10034158	-117.8312973	Coco's Restaurant & Bakery	4b33f3b6f964a520ba2225e3	34.11573992	-117.829442	1722	American Restaurant	1161	441	8	8.4
14	34.10034158	-117.8312973	Bed Bath & Beyond	4b2e9d24f964a52095e324e3	34.11474208	-117.8345628	1631	Furniture / Home Store	1035	512	1	8.3
14	34.10034158	-117.8312973	Golden Spoon Frozen Yogurt	4c79439a97028cfa4767dafe	34.11633504	-117.8361083	1834	Frozen Yogurt Shop	1668	679	15	8.1
14	34.10034158	-117.8312973	Barnes & Noble	4b147e7df964a520dba323e3	34.11561301	-117.8365794	1768	Bookstore	3896	1392	10	8
14	34.10034158	-117.8312973	Frank G. Bonelli Regional Park	4af4db62f964a520f9f621e3	34.08348118	-117.8062248	2977	Park	2852	1546	16	9.3
14	34.10034158	-117.8312973	Krispy Kreme	5728a989498ef4036072aeac	34.11347959	-117.8265722	1525	Donut Shop	145	80	0	7.8
14	34.10034158	-117.8312973	Vitamin City Health and Wellness	4c76c04eb4b4b60ce47c250e	34.104751	-117.8193247	1207	Grocery Store	306	89	6	7.7
14	34.10034158	-117.8312973	Albertsons	4b34e8f8f964a520152925e3	34.105988	-117.803941	2598	Grocery Store	3058	491	3	8.5
14	34.10034158	-117.8312973	Five Guys	573baddfcd10291740396039	34.113559	-117.827367	1515	Burger Joint	58	40	0	7.8
14	34.10034158	-117.8312973	HomeGoods	4c4386102d3ec9b658ab2dae	34.11697354	-117.8314376	1851	Furniture / Home Store	744	422	2	7.9
14	34.10034158	-117.8312973	Red Robin Gourmet Burgers	4b80a435f964a520f38230e3	34.10448474	-117.8174686	1355	Burger Joint	4549	1743	22	7.6
14	34.10034158	-117.8312973	Best Buy	4b4fcbdcf964a520bc1527e3	34.11506511	-117.8366005	1710	Electronics Store	5532	1309	17	7.7
14	34.10034158	-117.8312973	Applebee's	4b6393e4f964a5208b842ae3	34.10447734	-117.8183006	1283	American Restaurant	1823	872	12	7.6
14	34.10034158	-117.8312973	Taco Bell	4b3d8c48f964a520639525e3	34.10684111	-117.8191822	1330	Fast Food Restaurant	1543	467	1	7.5
14	34.10034158	-117.8312973	Lowe's Home Improvement	4b3ff1dff964a520b2b225e3	34.108272	-117.819237	1419	Hardware Store	1779	631	6	7.6
14	34.10034158	-117.8312973	Miyako Sushi	4b98510cf964a5206e3b35e3	34.12696056	-117.829831	2966	Japanese Restaurant	1561	417	19	8.5
14	34.10034158	-117.8312973	San Dimas Liquor	4bda3a9b2a3a0f476171aab6	34.10729823	-117.8370012	936	Liquor Store	238	65	2	7.4
14	34.10034158	-117.8312973	Capriotti's Sandwich Shop	4fe75ca7e4b0e1967f1cd5b2	34.11482337	-117.8294099	1621	Sandwich Place	643	208	5	7.6
14	34.10034158	-117.8312973	Montana's	4b6e6dc7f964a52023bd2ce3	34.10615418	-117.8175336	1424	Nightclub	1628	731	9	7.5
14	34.10034158	-117.8312973	Casa del Rey Mexican Restaurant & Cantina	4b5e585ef964a5209c8a29e3	34.10684776	-117.8134695	1795	Mexican Restaurant	1577	579	18	7.7
14	34.10034158	-117.8312973	The Donut Man	4a5d5de6f964a52099bd1fe3	34.1288935	-117.849741	3604	Donut Shop	9757	4874	126	9.3
14	34.10034158	-117.8312973	The UPS Store	4d558e6558856dcb73964b6d	34.10769282	-117.82682	916	Shipping Store	308	85	1	7.3
14	34.10034158	-117.8312973	Del Taco	4b3c190bf964a520c88125e3	34.10520685	-117.8191993	1239	Mexican Restaurant	1370	347	3	7.4
14	34.10034158	-117.8312973	Starbucks	4db73f300437af5fb4c857cf	34.11573095	-117.8365948	1781	Coffee Shop	766	174	3	7.6
14	34.10034158	-117.8312973	Walgreens	4b634208f964a520036e2ae3	34.10618414	-117.8283352	705	Pharmacy	589	195	2	7.3
14	34.10034158	-117.8312973	El Pollo Loco	4b070a90f964a5200cf622e3	34.10640306	-117.827198	773	Fast Food Restaurant	632	261	5	7.3
14	34.10034158	-117.8312973	GameStop	4b8ed3f8f964a520873933e3	34.11459	-117.82942	1595	Video Game Store	669	186	0	7.5
14	34.10034158	-117.8312973	Mauricio's Mexican Food & Pizza	4be36c89660ec928552ecc3b	34.12595671	-117.8207163	3013	Mexican Restaurant	1145	276	14	8.2
14	34.10034158	-117.8312973	In-N-Out Burger	4a70ddb7f964a520a1d81fe3	34.10509866	-117.8729316	3874	Burger Joint	3724	1324	28	9.3
14	34.10034158	-117.8312973	San Dimas Farmers Market	4bbd35cb8ec3d13a81df1b28	34.10764134	-117.8042181	2624	Farmers Market	323	125	4	7.9
15	34.2653945	-118.3004805	Starbucks	5405e95d498ef5279cda69ed	34.25992	-118.31306	1307	Coffee Shop	633	117	2	8.5
15	34.2653945	-118.3004805	Tori Yen Restaurant	4b65ed6ef964a520e1082be3	34.25123355	-118.2934823	1702	Sushi Restaurant	367	91	10	8.2
15	34.2653945	-118.3004805	Joselito's West	4b5d675ff964a520fb5b29e3	34.24986489	-118.291069	1933	Mexican Restaurant	2307	544	25	8.2
15	34.2653945	-118.3004805	Giamela's Submarine Sandwiches	4bf8a7b4b182c9b6b6ee775a	34.26013085	-118.323821	2225	Sandwich Place	261	137	8	8.1
15	34.2653945	-118.3004805	In-N-Out Burger	4b61f5d8f964a520ae2d2ae3	34.24094099	-118.2665807	4139	Burger Joint	3009	1070	24	9.2
15	34.2653945	-118.3004805	Food In The Foothills	4fd00320e4b00dbf7d795ae7	34.259793	-118.313585	1357	Food Truck	343	105	9	7.8
15	34.2653945	-118.3004805	Angeles National Golf Club	4b79f41af964a5203c1c2fe3	34.26779825	-118.3345831	3148	Golf Course	1192	680	5	8.3
15	34.2653945	-118.3004805	Sweet Cherries	4ba918d1f964a520140b3ae3	34.25950615	-118.312605	1293	Diner	391	134	4	7.7
15	34.2653945	-118.3004805	Sake Sake	4b81eeadf964a52069c430e3	34.260169	-118.314949	1452	Sushi Restaurant	578	161	9	7.7
15	34.2653945	-118.3004805	Super Char Burger	4d6df6332e6ea09382121750	34.25645612	-118.3002257	995	Burger Joint	242	67	4	7.6
15	34.2653945	-118.3004805	VONS	4b7b559bf964a520ce5e2fe3	34.25914069	-118.3013284	700	Supermarket	2315	359	4	7.3
15	34.2653945	-118.3004805	The Crows Nest Sports Grille	53b1b5b0498eaa800d486111	34.24996245	-118.2906586	1941	Sports Bar	154	34	2	7.4
15	34.2653945	-118.3004805	Peña's Tacos	50e50668e4b08efe128bc54b	34.25997822	-118.3140916	1389	Mexican Restaurant	314	101	10	7.3
15	34.2653945	-118.3004805	Tee's on the Green	4f1c8ea1e4b0854507daed8f	34.23406982	-118.2721558	4353	American Restaurant	139	59	0	7.9
15	34.2653945	-118.3004805	Sianto's Bakery Cafe	4d31f93a2c76a143cd986bc7	34.237686	-118.2610873	4759	Middle Eastern Restaurant	655	238	11	8
15	34.2653945	-118.3004805	Sun Thrift	4b97e07df964a520fe1b35e3	34.260736	-118.3251572	2328	Thrift / Vintage Store	503	174	5	7.4
15	34.2653945	-118.3004805	Brace Canyon Park	4bae1d9cf964a52016863be3	34.21060882	-118.3293264	6651	Park	1300	339	6	8.7
15	34.2653945	-118.3004805	Albertsons	56d59d0a498e080c359759c8	34.24074427	-118.2674886	4092	Market	165	34	0	7.7
15	34.2653945	-118.3004805	Deukmejian Wilderness Park	4c901f590b9e37043649655e	34.24875541	-118.2538472	4673	Park	572	230	4	7.9
15	34.2653945	-118.3004805	Stough Canyon Nature Center	4be734af6af1ef3b97831b96	34.20877967	-118.3027717	6305	Trail	413	231	1	8.4
15	34.2653945	-118.3004805	PetSmart	4ba688eef964a520eb5b39e3	34.24195714	-118.2696297	3855	Pet Store	1339	255	5	7.6
15	34.2653945	-118.3004805	Wag My Tail	4c7c15ba2d3ba14390ed95d0	34.25996	-118.3177	1695	Pet Store	41	15	3	7.2
15	34.2653945	-118.3004805	Agave Bar & Grill	4d6ad31f35c9a0936e433dc7	34.267819	-118.3344607	3137	American Restaurant	373	168	5	7.4
15	34.2653945	-118.3004805	Wildwood Canyon Park	4b79aed3f964a520d30a2fe3	34.20332077	-118.2985758	6912	Trail	1259	517	11	8.5
15	34.2653945	-118.3004805	Everest	4b243a78f964a520346424e3	34.23788641	-118.2625323	4644	Diner	2024	523	40	7.7
15	34.2653945	-118.3004805	Dunsmore Park	4b70b585f964a520e12a2de3	34.23904186	-118.2564511	5001	Park	1105	184	5	7.8
15	34.2653945	-118.3004805	Starlight Bowl	4c312994ed37a59397ff6903	34.20657617	-118.3101583	6607	Music Venue	569	388	9	8.3
15	34.2653945	-118.3004805	Verdugo Hills Golf Course	4b534d75f964a520559627e3	34.23408012	-118.271965	4363	Golf Course	782	345	6	7.6
15	34.2653945	-118.3004805	Jack in the Box	4c32fcea213c2d7fc832365d	34.25995982	-118.3160439	1554	Burger Joint	758	269	5	7
15	34.2653945	-118.3004805	McCambridge Park	4b986d6ff964a520b84135e3	34.191733	-118.3212211	8419	Park	2425	761	9	9.2
15	34.2653945	-118.3004805	Tonir Cafe	4e2dc291ae605c533a4f75f0	34.20429875	-118.3463289	8003	Mediterranean Restaurant	254	115	8	8.6
15	34.2653945	-118.3004805	Bob Smith Toyota	4ad3ce24f964a5206ce620e3	34.23169287	-118.251483	5865	Auto Dealership	450	174	4	7.8
15	34.2653945	-118.3004805	Rise N Shine Café	4b8ae228f964a520238732e3	34.2473	-118.35712	5587	Breakfast Spot	457	209	6	7.7
15	34.2653945	-118.3004805	Castaway Burbank	4a0715acf964a52023731fe3	34.20405414	-118.3027424	6831	American Restaurant	4769	3753	53	8
15	34.2653945	-118.3004805	Old Time Drive In	4b96f998f964a5205af134e3	34.22856932	-118.3647907	7198	American Restaurant	665	281	15	8.1
15	34.2653945	-118.3004805	In-N-Out Burger	49feed5df964a520b56f1fe3	34.18493234	-118.3160591	9071	Burger Joint	13496	6549	72	9.2
15	34.2653945	-118.3004805	Tortas Mexico	4c018c541747a593a9b15dca	34.241206	-118.2667977	4105	Mexican Restaurant	464	180	11	7.3
15	34.2653945	-118.3004805	YMCA	4bd8d835e914a593d5d154fa	34.24686505	-118.2808947	2738	Gym	1461	94	2	7.1
15	34.2653945	-118.3004805	Tickle Tree Cafe	501e03da83025a18eded8b71	34.2251274	-118.2412362	7057	Café	627	328	17	7.9
15	34.2653945	-118.3004805	Polished Nail Salon	4acfc89ff964a520f4d520e3	34.19103826	-118.3289766	8682	Nail Salon	703	221	20	8.6
15	34.2653945	-118.3004805	Niko Niko Sushi	4aea435ef964a5209cba21e3	34.18941863	-118.3196908	8640	Sushi Restaurant	1762	869	38	8.6
15	34.2653945	-118.3004805	Trader Joe's	4e91e0bf5c5c4562f088abee	34.20700186	-118.2328034	9002	Grocery Store	2583	621	10	8.8
15	34.2653945	-118.3004805	Bob's Big Boy	4b232d03f964a520295424e3	34.220908	-118.3673529	7898	Burger Joint	1529	676	12	8.2
15	34.2653945	-118.3004805	Two Strike Park	4b9d490cf964a5202ba036e3	34.23304013	-118.2355504	6976	Park	583	160	4	7.9
15	34.2653945	-118.3004805	Granville Cafe	4b4137edf964a5207fc325e3	34.18108225	-118.3093594	9421	American Restaurant	7516	4037	94	9.1
15	34.2653945	-118.3004805	Tender Greens	5384a942498ecd1450a6dfb3	34.1825321	-118.3112261	9277	Salad Place	1030	489	12	8.9
15	34.2653945	-118.3004805	Sharky's Woodfired Mexican Grill	4a9ec9a1f964a5202a3b20e3	34.19146055	-118.3291665	8643	Mexican Restaurant	4763	1825	32	8.5
15	34.2653945	-118.3004805	Hook Burger Bistro	4db1d52b5da32cf2df65aff9	34.191153	-118.3290506	8672	Burger Joint	5382	2438	56	8.4
15	34.2653945	-118.3004805	Starbucks	57b4635f498e576221f6f5f1	34.23442	-118.25592	5357	Coffee Shop	478	41	0	7.4
15	34.2653945	-118.3004805	Sprouts Farmers Market	4ad8ecddf964a520131621e3	34.18696474	-118.3187521	8891	Grocery Store	6432	1563	33	8.5
16	34.22193799	-118.4370716	Studio Nails	4c0c3dbfbbc676b0bcd74cd5	34.22693307	-118.4350577	586	Cosmetics Shop	145	38	1	8.4
16	34.22193799	-118.4370716	In-N-Out Burger	4af73813f964a520460722e3	34.215004	-118.4482496	1286	Burger Joint	2657	1358	22	9.1
16	34.22193799	-118.4370716	In-N-Out Burger	4af3b23df964a52025ef21e3	34.22192846	-118.4307685	580	Burger Joint	2813	1136	23	7.9
16	34.22193799	-118.4370716	Winchell's Donuts	4b99d739f964a5201b9435e3	34.22202243	-118.4340884	274	Donut Shop	993	120	5	7.5
16	34.22193799	-118.4370716	Khun Khao Thai Restaurant	4be5c46b2457a5934df9ab15	34.22144943	-118.4279677	839	Thai Restaurant	478	148	6	7.8
16	34.22193799	-118.4370716	Manila Good-Ha Fast Food	4bdf0f81e75c0f4738c4c903	34.21950856	-118.4323315	513	Asian Restaurant	671	234	9	7.5
16	34.22193799	-118.4370716	LA Kings Valley Ice Center	4e31f78c18387ab7fc506c0f	34.22822169	-118.4497628	1361	Skating Rink	2860	583	7	8.1
16	34.22193799	-118.4370716	Gap Factory Store	5463c147498ed803acab50ea	34.21464819	-118.4460896	1160	Clothing Store	48	25	0	7.7
16	34.22193799	-118.4370716	TOGO'S Sandwiches	4b786215f964a52016ca2ee3	34.21594853	-118.4484037	1237	Sandwich Place	520	149	4	7.7
16	34.22193799	-118.4370716	Baan Thai	4bbe8c5d85fbb7139c067167	34.22183901	-118.428173	819	Thai Restaurant	425	129	6	7.5
16	34.22193799	-118.4370716	Rincon Taurino	4ba99287f964a5201c2f3ae3	34.23555272	-118.4497058	1910	Mexican Restaurant	440	192	10	8.1
16	34.22193799	-118.4370716	Sakura Sushi Bar	4b1748d3f964a52083c423e3	34.220736	-118.433322	370	Sushi Restaurant	858	278	6	7.1
16	34.22193799	-118.4370716	The Habit Burger Grill	5122d2f1e4b07610a5a2e2a9	34.20213648	-118.4490699	2465	Burger Joint	706	356	11	8.5
16	34.22193799	-118.4370716	Yogurtland	54eca657498e173028d9eaa1	34.22185826	-118.4551755	1666	Frozen Yogurt Shop	25	9	0	7.7
16	34.22193799	-118.4370716	Petsmart	57141bb0498e1a08ecfe410b	34.215187	-118.446144	1123	Pet Store	15	13	0	7.4
16	34.22193799	-118.4370716	Ay Papa Que Rico	4d681a046d6a236a6a57392a	34.20461958	-118.4485821	2199	Cuban Restaurant	350	149	9	8.1
16	34.22193799	-118.4370716	Van Nuys Amtrak	516f1d84498ee19e1446e4be	34.21143165	-118.4481087	1549	Train Station	821	506	1	7.6
16	34.22193799	-118.4370716	AYCE GOGI	55eb60c1498ed22731d5616e	34.20007586	-118.447892	2629	Korean Restaurant	242	164	5	8.5
16	34.22193799	-118.4370716	Back To The Future Filming Location - McFly's House	4ea73f0f775bfe4802d1f297	34.23913384	-118.4332556	1946	Historic Site	229	124	3	7.8
16	34.22193799	-118.4370716	Seafood City Supermarket	4bf990b31134b71398470fc9	34.22045459	-118.4330274	407	Supermarket	2272	800	11	7
16	34.22193799	-118.4370716	Denny's	4caabe8e14c337049dbae43b	34.22518285	-118.4484825	1110	American Restaurant	442	294	5	7.3
16	34.22193799	-118.4370716	Krua Thai	4a98aafff964a5200d2d20e3	34.20097336	-118.4191655	2857	Thai Restaurant	4053	1641	46	8.7
16	34.22193799	-118.4370716	Blaze Pizza	5849fe18730a92379294ef1b	34.2144404	-118.4485011	1342	Pizza Place	16	13	1	7.3
16	34.22193799	-118.4370716	The Drunken Crab	5424c310498eda4584024ca0	34.20087097	-118.4242597	2625	Cajun / Creole Restaurant	320	213	5	8.2
16	34.22193799	-118.4370716	Bamboo Bistro	4be717d3cf200f472643153c	34.22537919	-118.448497	1119	Asian Restaurant	609	353	7	7.2
