DestinationID	DestinationLat	DestinationLng	Name	VenueId	Lat	Lng	Distance	Category	CheckinsCount	UsersCount	TipCount	Rating
1	33.2479849	-111.5267846	The Pork Shop	4ba0f63df964a520748a37e3	33.21984747	-111.5297677	3144	BBQ Joint	759	418	18	9.2
1	33.2479849	-111.5267846	Circle K	4f749d5de4b0bdf32e7709d8	33.25012386	-111.564044	3476	Convenience Store	1166	215	3	7.9
1	33.2479849	-111.5267846	Queen Creek Olive Mill	5728db25498e6e9c4774d5c3	33.22098502	-111.5833161	6061	Italian Restaurant	158	139	5	9.1
1	33.2479849	-111.5267846	Walgreens	4ca93ab9b7106dcb53f27aa5	33.24858036	-111.56256	3331	Pharmacy	1132	265	2	7.6
1	33.2479849	-111.5267846	Schnepf Farms	4acfc226f964a520cad520e3	33.22414064	-111.5906755	6514	Farm	2054	1628	25	8.3
1	33.2479849	-111.5267846	Circle Cross Ranch	4be5e868cf200f47f4ec133c	33.20540014	-111.5795956	6830	Farm	2096	177	2	8.2
1	33.2479849	-111.5267846	Fry's Marketplace	4ab7b232f964a520797a20e3	33.21833793	-111.5654414	4883	Supermarket	4801	817	13	7.7
1	33.2479849	-111.5267846	Aaron's Queen Creek	4bf840205efe2d7f78696a34	33.24801	-111.62566	9204	Furniture / Home Store	3509	2151	57	9
1	33.2479849	-111.5267846	Sushi Creek	4b78820ff964a520f0d22ee3	33.24999335	-111.6327947	9871	Sushi Restaurant	1523	392	27	8.8
1	33.2479849	-111.5267846	Schnepf Farm And Country Store	4d55637da05c37049d15b887	33.22454413	-111.5905649	6486	Theme Park	615	519	15	7.6
1	33.2479849	-111.5267846	Moreno's Mexican Grill	4ce42b6b748d6ea8f8e4ce50	33.21832233	-111.5647892	4840	Mexican Restaurant	905	334	16	7.3
1	33.2479849	-111.5267846	Firehouse Subs	5270205311d235916cb6186d	33.25470769	-111.633442	9957	Sandwich Place	122	62	4	8.6
1	33.2479849	-111.5267846	Chipotle Mexican Grill	4b476dd6f964a520bd3126e3	33.2559868	-111.6390324	10487	Mexican Restaurant	1905	540	5	9
1	33.2479849	-111.5267846	Uncle Bear's Grill & Tap	4aac636af964a520c05d20e3	33.25014794	-111.627735	9401	Bar	4865	1149	36	8.3
1	33.2479849	-111.5267846	Anytime Fitness	528d53e2498e236f1d6e574b	33.24728956	-111.5616103	3243	Gym	684	14	0	7.1
1	33.2479849	-111.5267846	Pecan Creek Park	4de2405ad4c0704405670518	33.22524007	-111.5575462	3822	Professional & Other Places	1031	103	0	7.1
1	33.2479849	-111.5267846	Kohl's	4ac91442f964a5207ebe20e3	33.257176	-111.642639	10833	Department Store	1821	567	5	8.7
1	33.2479849	-111.5267846	Dunkin Donuts	52bf1b37498ecaf1041b8d9d	33.1779857	-111.5819478	9333	Donut Shop	170	67	3	8.1
1	33.2479849	-111.5267846	Costa Vida	4b20418af964a520742f24e3	33.249897	-111.6259372	9233	Mexican Restaurant	807	296	14	8
1	33.2479849	-111.5267846	Queen Creek Marketplace	4c05a91e70839521a30b7bce	33.25399694	-111.6401542	10575	Shopping Mall	2523	460	3	8.5
1	33.2479849	-111.5267846	San Tan Flat	4ac5d631f964a52079b220e3	33.2007193	-111.6325373	11165	Steakhouse	3863	1738	40	8.8
1	33.2479849	-111.5267846	China Chef	4b74a6dbf964a52049ea2de3	33.21817756	-111.5643759	4823	Chinese Restaurant	325	106	4	7.2
1	33.2479849	-111.5267846	San Tan Heights Park	4d51dfedbd6ff04d6c41f60c	33.17780345	-111.5985008	10278	Park	458	92	0	8.2
1	33.2479849	-111.5267846	Kneaders Bakery & Cafe	538e5c6d498ece9c7e081095	33.25000741	-111.6269548	9328	Bakery	92	49	3	8
1	33.2479849	-111.5267846	BevMo!	4b31826af964a520320825e3	33.2565604	-111.6396302	10548	Wine Shop	1052	497	6	8.4
1	33.2479849	-111.5267846	The Villages at Queen Creek	4d73dcc4e87888bfa99e7989	33.23865163	-111.6287756	9552	Playground	1371	121	3	8
1	33.2479849	-111.5267846	Starbucks	4fc9457fd4f24895b4467bfe	33.21830501	-111.5652609	4873	Coffee Shop	872	120	3	7.1
1	33.2479849	-111.5267846	CVS/pharmacy	4d0171627212b60c1871d4bf	33.24790127	-111.6257612	9214	Pharmacy	618	176	0	7.9
1	33.2479849	-111.5267846	In-N-Out Burger	52ebd7c2498e7b01c6d84073	33.25870617	-111.6401483	10620	Burger Joint	411	234	8	8.3
1	33.2479849	-111.5267846	Cost Plus World Market	4c5f43f254ac0f47bb1ab321	33.25491438	-111.642048	10757	Furniture / Home Store	42	32	0	8.3
1	33.2479849	-111.5267846	Harkins Queen Creek 14	54ed48d4498e2758769deaa0	33.25879652	-111.6420581	10798	Movie Theater	648	164	4	8.3
1	33.2479849	-111.5267846	Baci Italian Bistro	4cf9a0affeec6dcbd3773a36	33.27819568	-111.642978	11326	Italian Restaurant	767	379	26	8.5
1	33.2479849	-111.5267846	The Bistro	53a1e008498e9e4b59a02e5f	33.241692	-111.633875	9994	Bistro	68	34	3	8
1	33.2479849	-111.5267846	Fry's Food Store	4af8738ef964a520600d22e3	33.16059493	-111.5605506	10223	Supermarket	3295	604	11	8.1
1	33.2479849	-111.5267846	Arizona Renaissance Festival	4d7dc0fd6174a35d15bb7c03	33.32015423	-111.4305901	12028	Performing Arts Venue	6433	3883	53	8.7
1	33.2479849	-111.5267846	QuikTrip	4b1034b1f964a520496b23e3	33.18053754	-111.5850395	9263	Convenience Store	4606	534	11	7.7
1	33.2479849	-111.5267846	Desert Mountain Park	4bdf6b010ee3a593f23c34b0	33.24761148	-111.6495981	11433	Baseball Field	923	292	2	8.3
1	33.2479849	-111.5267846	Olive Garden	4d2b9120b818a35df6eeb08a	33.25367797	-111.6383878	10408	Italian Restaurant	2216	867	33	7.9
1	33.2479849	-111.5267846	Smashburger	52141e3a11d24e6532047125	33.25582785	-111.6387917	10463	Burger Joint	509	273	16	7.9
1	33.2479849	-111.5267846	Starbucks	4c28f4cced0ac9b6a90b61aa	33.17922955	-111.5850272	9381	Coffee Shop	3751	558	17	7.7
1	33.2479849	-111.5267846	PetSmart	4acee7a8f964a52007d220e3	33.257232	-111.639253	10520	Pet Store	1516	348	8	7.9
1	33.2479849	-111.5267846	"Barney Family Sports Complex ""The Barn"""	4c3520e9a0ced13ab267196e	33.26400585	-111.607706	7741	Gym / Fitness Center	1115	268	5	7.4
1	33.2479849	-111.5267846	Starbucks	571554ae498e8e66103384c1	33.25659	-111.638035	10400	Coffee Shop	378	49	0	7.8
1	33.2479849	-111.5267846	Golf Club at Johnson Ranch	4b4a270df964a520887c26e3	33.15891719	-111.5678868	10628	Golf Course	1077	184	4	7.8
1	33.2479849	-111.5267846	Daily Bread Bistro	50e78d3ae4b0a9a016b79117	33.19145816	-111.5053022	6602	Diner	50	22	4	7.1
1	33.2479849	-111.5267846	Baskin-Robbins	4f997b4dd4f21823bb1f4ed5	33.25020549	-111.6277758	9405	Ice Cream Shop	383	214	4	7.6
1	33.2479849	-111.5267846	Ulta Beauty	4bb2668435f0c9b62a39bb83	33.25658514	-111.6422502	10791	Salon / Barbershop	424	168	1	7.8
1	33.2479849	-111.5267846	Paradise Bakery & Cafe	4c80463cd92ea093649e3672	33.25600508	-111.6389722	10481	American Restaurant	1351	569	13	7.7
1	33.2479849	-111.5267846	Queen Creek Performing Arts Center	4bf9d76c5efe2d7f46ee6c34	33.24655224	-111.6048822	7272	Performing Arts Venue	494	245	2	7.2
1	33.2479849	-111.5267846	Firehouse Subs San Tan Valley	5267e5f711d2884a03e63958	33.17843078	-111.5844447	9422	Sandwich Place	145	54	4	7.5
2	33.22696902	-111.6650526	The Deli	4af1dbcaf964a520d7e321e3	33.2125793	-111.67525	1862	Deli / Bodega	734	330	20	8.4
2	33.22696902	-111.6650526	Desert Mountain Park	4bdf6b010ee3a593f23c34b0	33.24761148	-111.6495981	2711	Baseball Field	923	292	2	8.3
2	33.22696902	-111.6650526	Chipotle Mexican Grill	4b476dd6f964a520bd3126e3	33.2559868	-111.6390324	4037	Mexican Restaurant	1905	540	5	9
2	33.22696902	-111.6650526	Sushi Creek	4b78820ff964a520f0d22ee3	33.24999335	-111.6327947	3948	Sushi Restaurant	1523	392	27	8.8
2	33.22696902	-111.6650526	Kohl's	4ac91442f964a5207ebe20e3	33.257176	-111.642639	3957	Department Store	1821	567	5	8.7
2	33.22696902	-111.6650526	Aaron's Queen Creek	4bf840205efe2d7f78696a34	33.24801	-111.62566	4351	Furniture / Home Store	3509	2151	57	9
2	33.22696902	-111.6650526	San Tan Flat	4ac5d631f964a52079b220e3	33.2007193	-111.6325373	4208	Steakhouse	3863	1738	40	8.8
2	33.22696902	-111.6650526	Queen Creek Marketplace	4c05a91e70839521a30b7bce	33.25399694	-111.6401542	3798	Shopping Mall	2523	460	3	8.5
2	33.22696902	-111.6650526	San Tan Mountain Regional Park	4e428baa887719193969c391	33.19025123	-111.6581453	4137	Trail	348	129	4	8.6
2	33.22696902	-111.6650526	Firehouse Subs	5270205311d235916cb6186d	33.25470769	-111.633442	4265	Sandwich Place	122	62	4	8.6
2	33.22696902	-111.6650526	Cost Plus World Market	4c5f43f254ac0f47bb1ab321	33.25491438	-111.642048	3776	Furniture / Home Store	42	32	0	8.3
2	33.22696902	-111.6650526	Casa De Mina	505f79e1e4b00e4386f1e707	33.21431732	-111.6863632	2433	Mexican Restaurant	257	124	9	7.9
2	33.22696902	-111.6650526	BevMo!	4b31826af964a520320825e3	33.2565604	-111.6396302	4056	Wine Shop	1052	497	6	8.4
2	33.22696902	-111.6650526	Iron Chef	4b9994bff964a5203f8535e3	33.23359822	-111.6870826	2180	Asian Restaurant	231	91	5	7.8
2	33.22696902	-111.6650526	Trilogy Golf Club at Power Ranch	4c5afbdb67ac0f47e50f084c	33.25971897	-111.6940928	4538	Golf Course	741	338	5	8.6
2	33.22696902	-111.6650526	Diamond Dot Market	4ce83c4cf8653704e041afc4	33.212564	-111.6855836	2495	Mexican Restaurant	222	79	3	7.8
2	33.22696902	-111.6650526	In-N-Out Burger	52ebd7c2498e7b01c6d84073	33.25870617	-111.6401483	4225	Burger Joint	411	234	8	8.3
2	33.22696902	-111.6650526	Harkins Queen Creek 14	54ed48d4498e2758769deaa0	33.25879652	-111.6420581	4139	Movie Theater	648	164	4	8.3
2	33.22696902	-111.6650526	The Bistro	53a1e008498e9e4b59a02e5f	33.241692	-111.633875	3333	Bistro	68	34	3	8
2	33.22696902	-111.6650526	Uncle Bear's Grill & Tap	4aac636af964a520c05d20e3	33.25014794	-111.627735	4327	Bar	4865	1149	36	8.3
2	33.22696902	-111.6650526	Buddyz	52c0ce8b498e687489b5638f	33.21178062	-111.6845906	2483	Pizza Place	138	73	10	7.8
2	33.22696902	-111.6650526	Seville Golf & Country Club	4b588d5ff964a520925d28e3	33.22761901	-111.704212	3647	Event Space	2159	585	5	8.1
2	33.22696902	-111.6650526	The Villages at Queen Creek	4d73dcc4e87888bfa99e7989	33.23865163	-111.6287756	3619	Playground	1371	121	3	8
2	33.22696902	-111.6650526	Blue 32 Sports Grill	52c77bf211d2eeaa5a9e21c4	33.234921	-111.722628	5433	Sports Bar	571	189	6	8.5
2	33.22696902	-111.6650526	Olive Garden	4d2b9120b818a35df6eeb08a	33.25367797	-111.6383878	3873	Italian Restaurant	2216	867	33	7.9
2	33.22696902	-111.6650526	Smashburger	52141e3a11d24e6532047125	33.25582785	-111.6387917	4037	Burger Joint	509	273	16	7.9
2	33.22696902	-111.6650526	Costa Vida	4b20418af964a520742f24e3	33.249897	-111.6259372	4447	Mexican Restaurant	807	296	14	8
2	33.22696902	-111.6650526	Kneaders Bakery & Cafe	538e5c6d498ece9c7e081095	33.25000741	-111.6269548	4377	Bakery	92	49	3	8
2	33.22696902	-111.6650526	PetSmart	4acee7a8f964a52007d220e3	33.257232	-111.639253	4137	Pet Store	1516	348	8	7.9
2	33.22696902	-111.6650526	Arizona Hair Company	4c7181cb9c6d6dcb2aa8d57a	33.23238838	-111.6872922	2156	Salon / Barbershop	126	51	5	7.5
2	33.22696902	-111.6650526	Ulta Beauty	4bb2668435f0c9b62a39bb83	33.25658514	-111.6422502	3921	Salon / Barbershop	424	168	1	7.8
2	33.22696902	-111.6650526	Teds Shooting Range	4e7ca383cc3f1ea01cc33c96	33.28197598	-111.6808526	6297	Sporting Goods Shop	427	229	7	8.6
2	33.22696902	-111.6650526	CVS/pharmacy	4d0171627212b60c1871d4bf	33.24790127	-111.6257612	4337	Pharmacy	618	176	0	7.9
2	33.22696902	-111.6650526	Baci Italian Bistro	4cf9a0affeec6dcbd3773a36	33.27819568	-111.642978	6061	Italian Restaurant	767	379	26	8.5
2	33.22696902	-111.6650526	Bar Vinedo	54dbbb0d498e613514edb694	33.28503791	-111.6845789	6714	Restaurant	121	52	5	8.8
2	33.22696902	-111.6650526	Starbucks	571554ae498e8e66103384c1	33.25659	-111.638035	4147	Coffee Shop	378	49	0	7.8
2	33.22696902	-111.6650526	Paradise Bakery & Cafe	4c80463cd92ea093649e3672	33.25600508	-111.6389722	4042	American Restaurant	1351	569	13	7.7
2	33.22696902	-111.6650526	San Tan Cafe	4aad4837f964a520775f20e3	33.21165518	-111.674889	1935	Breakfast Spot	301	129	8	7.3
2	33.22696902	-111.6650526	San Tan Mountain Regional Park	4e70c258a8098087a03d8589	33.16804233	-111.6356069	7110	Trail	849	379	8	8.8
2	33.22696902	-111.6650526	Chick-fil-A Queen Creek	4b19cb31f964a52049e423e3	33.26007004	-111.6423392	4248	Fast Food Restaurant	1553	523	13	7.7
2	33.22696902	-111.6650526	Queen Creek Olive Mill	5728db25498e6e9c4774d5c3	33.22098502	-111.5833161	7640	Italian Restaurant	158	139	5	9.1
2	33.22696902	-111.6650526	Cost Plus World Market	4aedf832f964a520c3d021e3	33.254887	-111.6419291	3780	Wine Bar	573	239	2	7.6
2	33.22696902	-111.6650526	Schnepf Farms	4acfc226f964a520cad520e3	33.22414064	-111.5906755	6933	Farm	2054	1628	25	8.3
2	33.22696902	-111.6650526	Barro's Pizza	4b331cdaf964a520ab1725e3	33.2651283	-111.7211376	6731	Pizza Place	1149	333	11	8.3
2	33.22696902	-111.6650526	Starbucks	4da0f1619aa4721e3385f019	33.23287317	-111.6869603	2143	Coffee Shop	253	68	2	7.2
2	33.22696902	-111.6650526	Oregano's Pizza Bistro	5627e4f3498ea72966d85741	33.25365627	-111.637208	3942	Pizza Place	120	84	1	7.5
2	33.22696902	-111.6650526	Queen Creek Cafe & Sports Grill	4ba97368f964a520fa273ae3	33.24826696	-111.6349024	3674	American Restaurant	3220	241	4	7.5
2	33.22696902	-111.6650526	Lowe's Home Improvement	4b81837ef964a52096ab30e3	33.264747	-111.723139	6850	Hardware Store	2112	630	2	8.2
2	33.22696902	-111.6650526	Starbucks	4ba145e5f964a52017a837e3	33.25437565	-111.6416505	3749	Coffee Shop	488	185	2	7.5
2	33.22696902	-111.6650526	Massage Envy - Queen Creek	4b5229aaf964a5209c6c27e3	33.252367	-111.638244	3771	Spa	392	108	5	7.5
3	33.72196371	-112.0949688	Harkins Theatres Norterra 14	4b33c7caf964a5200b1f25e3	33.71519952	-112.1140264	1918	Multiplex	13922	3826	38	9.1
3	33.72196371	-112.0949688	Chipotle Mexican Grill	4b4e1eeff964a520f0e126e3	33.71458189	-112.1126816	1834	Mexican Restaurant	4172	1316	20	8.8
3	33.72196371	-112.0949688	Mellow Mushroom	4b7b0e45f964a520d54e2fe3	33.71347031	-112.113888	1990	Pizza Place	10828	3753	95	8.8
3	33.72196371	-112.0949688	Sauce	4ad2905df964a52033e220e3	33.7149203	-112.11306	1849	Pizza Place	2626	1204	36	8.5
3	33.72196371	-112.0949688	Lowe's Home Improvement	4c94f35238dd8cfaf2d2cd62	33.710916	-112.110027	1859	Hardware Store	3719	971	6	8.5
3	33.72196371	-112.0949688	Elevate Coffee Company	4c2e3c804e132d7fb6d09ddf	33.71559431	-112.1138477	1886	Coffee Shop	4150	1031	33	8.5
3	33.72196371	-112.0949688	Charming Charlie	4c5369151b46c9b67d2ee2cc	33.71519059	-112.1125492	1793	Accessories Store	1090	685	2	8.4
3	33.72196371	-112.0949688	Pita Jungle	4e7e2b30be7bddefa446766d	33.7152325	-112.1134384	1867	Mediterranean Restaurant	3768	1445	32	8.3
3	33.72196371	-112.0949688	City Of Phoenix Sonoran Preserve Dixie Mountain Loop Trails	5134ce70e4b0ed273c3cfffe	33.74117983	-112.0974751	2151	Trail	329	76	3	8.5
3	33.72196371	-112.0949688	Ulta	5251c13811d233ad17fddccc	33.70903958	-112.1103005	2021	Cosmetics Shop	134	67	2	8.3
3	33.72196371	-112.0949688	BevMo!	4b5919ccf964a520927c28e3	33.71432706	-112.1105433	1673	Wine Shop	1618	753	8	8.1
3	33.72196371	-112.0949688	Homewood Suites by Hilton Phoenix North-Happy Valley	4bbc2b41e5b0d13aa3026f7c	33.7070358	-112.1135704	2393	Hotel	1019	241	8	8.3
3	33.72196371	-112.0949688	The Shops At Norterra	4b9eda33f964a520480637e3	33.71433213	-112.112373	1821	Shopping Mall	6332	1239	11	8
3	33.72196371	-112.0949688	Red Robin Gourmet Burgers	4b2c2f7ff964a52055c324e3	33.7120156	-112.112335	1952	Burger Joint	4326	2049	36	8
3	33.72196371	-112.0949688	P.F. Chang's	4b11fb17f964a520ca8723e3	33.71449	-112.11225	1803	Chinese Restaurant	4112	1966	31	7.9
3	33.72196371	-112.0949688	Panera Bread	57c08c52498ec88464df409f	33.714438	-112.110871	1694	Bakery	23	18	0	7.9
3	33.72196371	-112.0949688	Jersey Mike's Subs	4d126f112e58370429f9e3d1	33.71157698	-112.1113124	1904	Deli / Bodega	1478	562	18	7.9
3	33.72196371	-112.0949688	Olive Garden	4b5ce872f964a520514a29e3	33.71206135	-112.1137717	2060	Italian Restaurant	3046	1666	22	7.9
3	33.72196371	-112.0949688	Yogurtini	4e223d54483b041af1f5fc90	33.71509455	-112.1141589	1934	Frozen Yogurt Shop	906	487	7	7.9
3	33.72196371	-112.0949688	Barnes & Noble	4b416a13f964a52067c625e3	33.71142464	-112.1140438	2120	Bookstore	2029	999	8	7.9
3	33.72196371	-112.0949688	Streets Of New York	4c4754c619fde21e4df40776	33.71230157	-112.1018472	1250	Pizza Place	553	312	4	7.6
3	33.72196371	-112.0949688	Victoria's Secret PINK	4bd37f1b462cb713f2a1de07	33.71483538	-112.1121168	1775	Lingerie Store	1167	597	5	7.8
3	33.72196371	-112.0949688	Texas Roadhouse	5760dc08498e66ac35c8c4ca	33.71529738	-112.1147316	1974	Steakhouse	68	47	1	7.8
3	33.72196371	-112.0949688	Buffalo Wild Wings	4c12e1dca9c220a18ee1549d	33.71494354	-112.1134093	1877	Wings Joint	7748	2888	45	7.8
3	33.72196371	-112.0949688	Ulta Beauty	5349d45a498e3623c9edb73b	33.70897234	-112.1099395	2003	Salon / Barbershop	31	22	0	7.8
3	33.72196371	-112.0949688	Greek Pita	4caf6f0039458cfa1670fa9f	33.71105969	-112.1112192	1933	Greek Restaurant	1128	456	14	7.7
3	33.72196371	-112.0949688	Cost Plus World Market	4b6b75f5f964a520440a2ce3	33.71104882	-112.1141195	2149	Grocery Store	974	560	6	7.7
3	33.72196371	-112.0949688	Panda Express	4b900e8ff964a520ec7233e3	33.71171216	-112.1111441	1882	Chinese Restaurant	1098	591	8	7.6
3	33.72196371	-112.0949688	CVS/pharmacy	51964b00501983bcc0773ab2	33.74192076	-112.1069238	2482	Pharmacy	671	71	0	7.8
3	33.72196371	-112.0949688	Times Square Neighborhood Italian Restaurant	4ad7c8dbf964a520a90e21e3	33.68420113	-112.116326	4645	Italian Restaurant	2328	843	62	8.9
3	33.72196371	-112.0949688	Residence Inn Phoenix North Happy Valley	51e704b02fc612f0a5cb2cdc	33.7103693	-112.1036882	1522	Hotel	407	118	1	7.5
3	33.72196371	-112.0949688	Culver's	4aa5af0df964a520274920e3	33.683414	-112.097986	4300	Fast Food Restaurant	2700	1049	26	8.5
3	33.72196371	-112.0949688	Sonoran Preserve	5130c629e4b0303cca7c1461	33.74105013	-112.0974518	2137	Trail	100	50	4	7.6
3	33.72196371	-112.0949688	Cafe Zupas	521e52a304939a8ad5851002	33.71511945	-112.1140438	1923	Soup Place	521	295	14	7.6
3	33.72196371	-112.0949688	Game Stop	4bbfd48ab492d13ab96ea360	33.70894555	-112.1140914	2288	Video Game Store	512	218	2	7.6
3	33.72196371	-112.0949688	Massage Envy - North Phoenix	4c03e59d187ec9282e3fb67b	33.71418161	-112.1095367	1603	Spa	685	178	6	7.4
3	33.72196371	-112.0949688	Starbucks	4d4870ab4c9ef04df7c66a15	33.71104348	-112.1113909	1946	Coffee Shop	4652	1236	32	7.5
3	33.72196371	-112.0949688	European Wax Center	4eeb79a72c5beea620818788	33.71389993	-112.1095378	1620	Health & Beauty Service	187	54	1	7.4
3	33.72196371	-112.0949688	Jamba Juice The Shops at Norterra	55c409d4498eba36fb6a004c	33.71442735	-112.1107059	1681	Smoothie Shop	63	42	0	7.4
3	33.72196371	-112.0949688	Pork On A Fork	4c86645dd34ca14328544f80	33.68326711	-112.092296	4314	BBQ Joint	1139	596	25	8.2
3	33.72196371	-112.0949688	Happy Valley Towne Center	4c6ec2c75d089c74a33108c3	33.71101882	-112.1114299	1951	Shopping Mall	3748	769	3	7.4
3	33.72196371	-112.0949688	Starbucks	4bcc72c4937ca5932e13ab92	33.72002249	-112.1120237	1593	Café	795	237	1	7.4
3	33.72196371	-112.0949688	Cracker Barrel Old Country Store	4a705287f964a52048d71fe3	33.68169321	-112.1139565	4815	American Restaurant	3206	1707	25	8.3
3	33.72196371	-112.0949688	Paradise Bakery & Cafe	4b69d281f964a5205db62be3	33.71455017	-112.1108007	1682	Bakery	3841	1282	21	7.3
3	33.72196371	-112.0949688	Salad and Go	5719113a498e78a6218a212d	33.698863	-112.102007	2652	Salad Place	103	39	4	7.5
3	33.72196371	-112.0949688	Ah-So Sushi & Steak Restaurant	4aa30e24f964a520274320e3	33.7140801	-112.1117792	1786	Sushi Restaurant	2171	1241	34	7.3
3	33.72196371	-112.0949688	Olive Tree Mediterranean Market & Grill	4d8a585b76e1236acc6c1843	33.69890159	-112.1015852	2639	Mediterranean Restaurant	288	160	6	7.5
3	33.72196371	-112.0949688	Cafe Rio	55c65350498e81ab641a8779	33.71118053	-112.1113367	1933	Mexican Restaurant	186	81	1	7.3
3	33.72196371	-112.0949688	Castle Megastore	4bd2201db221c9b639fdd6d0	33.684378	-112.1149635	4575	Miscellaneous Shop	808	459	4	8.1
3	33.72196371	-112.0949688	Port of Subs	4b4f73b3f964a5203c0727e3	33.68323548	-112.0988864	4326	Sandwich Place	653	229	7	7.9
4	33.53147014	-112.1421791	Jamba Juice Bethany Towne Center	4b85f280f964a520f07a31e3	33.52470259	-112.1310679	1276	Juice Bar	1090	401	9	8.6
4	33.53147014	-112.1421791	Los Altos Ranch Market	4ceae033e888f04d8e724f6b	33.53752586	-112.1328189	1099	Grocery Store	936	425	13	8
4	33.53147014	-112.1421791	Golden Greek	413ba880f964a520781b1fe3	33.54158948	-112.1343675	1339	Greek Restaurant	204	108	10	8
4	33.53147014	-112.1421791	Panda Express	4b1ae45ef964a52012f423e3	33.52270424	-112.1519763	1333	Chinese Restaurant	489	249	6	7.9
4	33.53147014	-112.1421791	Grand Canyon University Arena	4e1b0bb1149507b8ad739064	33.51028495	-112.128767	2666	College Stadium	2973	1446	10	8.9
4	33.53147014	-112.1421791	Fast Eddie's Diner	4a86f983f964a520e30120e3	33.53881896	-112.1326998	1201	Diner	446	231	11	7.6
4	33.53147014	-112.1421791	QuikTrip	4c5b30bed25320a1a0f1bf7a	33.52361938	-112.1672017	2481	Convenience Store	3014	774	4	8.5
4	33.53147014	-112.1421791	Chic-fil-A Express	5216494f11d277c24a5d2ef8	33.51342572	-112.1306998	2273	Fast Food Restaurant	59	20	1	8
4	33.53147014	-112.1421791	QuikTrip	4cb6367056fca1cdb2a05418	33.53808243	-112.1367253	893	Convenience Store	1601	465	4	7.3
4	33.53147014	-112.1421791	La Purisima Bakery	4cbf99ba00d83704f047455c	33.5382243	-112.1570247	1569	Bakery	279	143	9	7.5
4	33.53147014	-112.1421791	Youfit Health Clubs	4f1dbfeee4b0ce22e7e54d86	33.5252	-112.13067	1275	Gym	797	95	6	7.3
4	33.53147014	-112.1421791	Cerreta Candy Co	4b6dc4a8f964a520098e2ce3	33.53836984	-112.1744438	3090	Candy Store	735	491	12	8.5
4	33.53147014	-112.1421791	Submarinos	50bcf178e4b0e5071dffcb3f	33.551362	-112.152412	2409	Italian Restaurant	60	33	6	7.8
4	33.53147014	-112.1421791	Great Wall Restaurant	413ba880f964a5207d1b1fe3	33.51054472	-112.1333662	2468	Chinese Restaurant	1841	766	27	7.8
4	33.53147014	-112.1421791	Starbucks	4b996686f964a520b67835e3	33.5244943	-112.1310352	1293	Coffee Shop	4823	899	15	7.3
4	33.53147014	-112.1421791	Submarinos	4bdcd44ac79cc9288a5788e9	33.55134025	-112.1523449	2404	Pizza Place	169	88	6	7.8
4	33.53147014	-112.1421791	BoSa Donuts	4bf6a3d1c07c9c74eb76bbef	33.53834253	-112.135555	981	Donut Shop	146	98	4	7.2
4	33.53147014	-112.1421791	Caramba Fresh Mexican Food	4bb64c5eef159c7423bb75f7	33.53835029	-112.1759283	3223	Mexican Restaurant	271	142	6	8.3
4	33.53147014	-112.1421791	Vito's Pizza	4c6f1696d7fab1f76b705ac9	33.55363364	-112.1526435	2651	Pizza Place	201	95	11	7.9
4	33.53147014	-112.1421791	La Pradera Park	4bf754448d30d13a57f0fe17	33.5384521	-112.145714	843	Playground	392	103	3	7.1
4	33.53147014	-112.1421791	Kiss the Cook Restaurant	4b8955d3f964a520812c32e3	33.53820854	-112.1657055	2308	Breakfast Spot	1205	504	18	7.6
4	33.53147014	-112.1421791	Glendale 9 Drive-in	54792219498eb26d3c0f2fc2	33.52048058	-112.1796017	3681	Movie Theater	348	190	4	8.6
4	33.53147014	-112.1421791	New Tokyo Food Market	4d07a845e350b60cf69d9342	33.5528644	-112.133341	2518	Grocery Store	102	63	2	7.7
4	33.53147014	-112.1421791	Cerreta Chocolate Factory	4b529b83f964a520ba8327e3	33.53841737	-112.1746068	3106	Candy Store	158	121	3	8
4	33.53147014	-112.1421791	Lenny's Burger Shop	4aff5de3f964a520d53722e3	33.53841284	-112.1144048	2690	Burger Joint	1161	620	28	7.7
4	33.53147014	-112.1421791	Haus Murphy's	4abecd66f964a520f88f20e3	33.53838083	-112.1830163	3866	German Restaurant	2501	1660	63	8.8
4	33.53147014	-112.1421791	Dunkin Donuts	4ba235b5f964a520f0e337e3	33.524582	-112.110824	3009	Donut Shop	2143	480	7	7.9
4	33.53147014	-112.1421791	La Piazza al Forno	4b9af19af964a52094e535e3	33.53842409	-112.1839504	3952	Italian Restaurant	1616	1009	47	8.8
4	33.53147014	-112.1421791	Bobby Q	4b302880f964a52013f724e3	33.5610343	-112.1158719	4097	BBQ Joint	5522	3136	98	9.1
4	33.53147014	-112.1421791	Little Saigon	4b3682e6f964a520103725e3	33.53912251	-112.1814763	3744	Vietnamese Restaurant	814	375	18	8.5
4	33.53147014	-112.1421791	Pedro's Mexican Restaurant	4c96699ff6c8ef3b413a82cf	33.53867737	-112.1662993	2377	Mexican Restaurant	971	393	17	7.5
4	33.53147014	-112.1421791	Akai Hana Sushi & Grill	4aa01cf7f964a5205a3e20e3	33.55443336	-112.1109874	3861	Sushi Restaurant	1874	636	28	8.6
4	33.53147014	-112.1421791	Papa Murphy's	5351d5dc498edb86a2061ac0	33.52453862	-112.130793	1308	Pizza Place	55	21	0	7.1
4	33.53147014	-112.1421791	Siam Thai Cuisine	4b64d907f964a520b0d42ae3	33.5533531	-112.166874	3344	Thai Restaurant	600	266	12	8
4	33.53147014	-112.1421791	Drawn to Comics	4b523fcff964a520a07227e3	33.53835868	-112.1838223	3939	Comic Shop	1435	390	19	8.6
4	33.53147014	-112.1421791	Romanelli's	4a89b5c6f964a520c50820e3	33.5671944	-112.133234	4062	Italian Restaurant	503	289	21	8.7
4	33.53147014	-112.1421791	Streets of New York	4d5f34661ee8721e96e39b21	33.55160448	-112.134012	2365	Pizza Place	380	108	3	7.4
4	33.53147014	-112.1421791	Takamatsu Restaurant	4ba57333f964a520480839e3	33.56788209	-112.1495604	4110	Korean Restaurant	746	396	20	8.6
4	33.53147014	-112.1421791	CVS Pharmacy	4b8c9731f964a520a2d732e3	33.52457106	-112.152037	1194	Pharmacy	301	95	4	7
4	33.53147014	-112.1421791	Max's Restaurant & Sports Bar	413ba880f964a520be1b1fe3	33.5354361	-112.1594298	1660	Sports Bar	546	218	11	7.2
4	33.53147014	-112.1421791	QuikTrip	4b7dd115f964a52093d62fe3	33.50883394	-112.1142071	3617	Convenience Store	3086	1025	17	8
4	33.53147014	-112.1421791	Cafe Sarajevo	4c0fef7081e976b0df570eeb	33.55275153	-112.132448	2535	Mediterranean Restaurant	177	127	7	7.4
4	33.53147014	-112.1421791	Fry's Food Store	4c0575c95753c928d88139f1	33.55229522	-112.1531308	2531	Grocery Store	2264	480	4	7.4
4	33.53147014	-112.1421791	QuikTrip	4ae726bff964a520e5a821e3	33.53829426	-112.1018938	3814	Convenience Store	1882	619	6	8.2
4	33.53147014	-112.1421791	Halo-Halo Kitchen	4c4352c3ce54e21e1dee0d1a	33.566973	-112.135773	3996	Asian Restaurant	777	330	9	8.3
4	33.53147014	-112.1421791	Pepe's Taco Villa	413ba880f964a520e81b1fe3	33.50975841	-112.1045544	4246	Mexican Restaurant	502	218	10	8.6
4	33.53147014	-112.1421791	The Spicery Restaurant	4d503b359d4937040087bf39	33.54096112	-112.1848004	4093	Restaurant	453	70	5	8.4
4	33.53147014	-112.1421791	Dairy Queen	4c0fee63b93cc9b648f155e0	33.50973163	-112.1185441	3266	Ice Cream Shop	337	169	5	7.8
4	33.53147014	-112.1421791	Starbucks Coffee	5298b29d11d28a5d53c83115	33.55169258	-112.1487296	2331	Coffee Shop	9	7	0	7.3
4	33.53147014	-112.1421791	Pink House Boutique	4bc6598a424195214212041d	33.53899809	-112.1834556	3920	Boutique	769	196	4	8.1
5	33.85546547	-112.1278972	Roberto's Mexican Food	4c6c9f8365eda0931da64cd0	33.84421326	-112.1324231	1320	Mexican Restaurant	721	358	18	8.6
5	33.85546547	-112.1278972	Anthem Community Park	4ba3bd00f964a520005a38e3	33.86068729	-112.1357346	928	Park	2375	859	10	8.3
5	33.85546547	-112.1278972	Gio's Pizza	551dc6e0498ed1f96ed0acd2	33.8706818	-112.1501035	2661	Pizza Place	41	14	6	8.7
5	33.85546547	-112.1278972	Shanghai Club	4cd4bdb567adf04da8472991	33.86556047	-112.133975	1256	Chinese Restaurant	601	207	10	8.1
5	33.85546547	-112.1278972	Sweethearts Gourmet Donuts	4ba0e7c0f964a5200d8637e3	33.86437561	-112.1393394	1450	Donut Shop	335	123	4	8
5	33.85546547	-112.1278972	SONIC Drive In	4b5df010f964a520df7429e3	33.85853125	-112.1121955	1491	Fast Food Restaurant	602	231	3	8
5	33.85546547	-112.1278972	Hand & Stone Massage	4c44dfb2f799e21ed576aea2	33.843644	-112.134836	1463	Massage Studio	214	76	8	7.9
5	33.85546547	-112.1278972	Starbucks	4bae50f0f964a520c6a13be3	33.86667877	-112.136891	1499	Coffee Shop	2972	887	23	7.8
5	33.85546547	-112.1278972	Havana Cigars	4b64c05af964a52046cd2ae3	33.86808706	-112.1502491	2498	Smoke Shop	140	47	8	8.1
5	33.85546547	-112.1278972	Fry's Marketplace	4b7c69e0f964a520ca912fe3	33.8440263	-112.1339076	1389	Supermarket	3879	632	8	7.7
5	33.85546547	-112.1278972	Barro's Pizza	4b98073df964a520452735e3	33.85800217	-112.1124545	1455	Pizza Place	503	173	6	7.7
5	33.85546547	-112.1278972	Coach Factory - Outlets At Anthem	4f610a8be4b0448e9a74214a	33.87363726	-112.1500337	2877	Accessories Store	542	447	4	7.9
5	33.85546547	-112.1278972	Anthem Country Club	4c0b0054340720a1f2868793	33.85958255	-112.0942354	3145	Golf Course	1453	392	6	7.8
5	33.85546547	-112.1278972	Mr. Gyros	4cc33e0242d1b60cfc0b1613	33.86413837	-112.13919	1421	Greek Restaurant	224	108	10	7.4
5	33.85546547	-112.1278972	Coach Factory Store	4ea06de3722e575b9ee0f125	33.87369693	-112.1500919	2885	Accessories Store	726	560	3	7.6
5	33.85546547	-112.1278972	Dara Thai Cafe	4c08539aa1b32d7f05ed95f0	33.864451	-112.139326	1454	Thai Restaurant	356	167	17	7.4
5	33.85546547	-112.1278972	Bath & Body Works	4b7c545df964a520af8c2fe3	33.8744834	-112.1503131	2962	Cosmetics Shop	346	228	1	7.6
5	33.85546547	-112.1278972	Buddy Stubbs Anthem Harley-Davidson	4cfb76a8d8468cfa41cbf46b	33.86513097	-112.1467328	2046	Bike Shop	357	178	2	7.4
5	33.85546547	-112.1278972	Nike Factory Store	4bfc81f6b5cd2d7ff7bb31fb	33.874758	-112.14866	2880	Clothing Store	1642	1094	4	7.5
5	33.85546547	-112.1278972	Hot Bagels and Deli	4b83ebb2f964a520b31631e3	33.79915953	-112.130928	6274	Breakfast Spot	1095	365	14	8.4
5	33.85546547	-112.1278972	Two Brothers Kitchen	507ae48be4b06da14299d92f	33.86405999	-112.1387222	1384	Breakfast Spot	306	154	14	7.2
5	33.85546547	-112.1278972	In-N-Out Burger	4b3d1541f964a5208b8d25e3	33.80050506	-112.1301235	6121	Burger Joint	3980	2390	30	8.2
5	33.85546547	-112.1278972	Mountainside Fitness	4b4390b8f964a52056e325e3	33.79694512	-112.1166229	6597	Gym	6527	338	10	8.2
5	33.85546547	-112.1278972	Daisy Mountain Coffee - Tramonto	53514c77498e2121ac1cfdfb	33.80003916	-112.1285691	6170	Café	221	55	7	8
5	33.85546547	-112.1278972	Starbucks	4bc1dfc34cdfc9b6dc229521	33.843337	-112.134407	1478	Coffee Shop	2672	722	12	7.1
5	33.85546547	-112.1278972	Starbucks	4beac791a9900f475de61640	33.79953325	-112.1272476	6226	Café	879	248	4	7.9
5	33.85546547	-112.1278972	Plaza Bonita	4e3997247d8b6bed20b059fc	33.79773796	-112.1209019	6458	Mexican Restaurant	711	259	13	7.9
5	33.85546547	-112.1278972	Q to U BBQ	4d56e6da143ca093d257c1fc	33.865301	-112.1340349	1233	BBQ Joint	306	173	10	7
5	33.85546547	-112.1278972	CVS Pharmacy	4bf4993594af2d7f0eda3a72	33.84349978	-112.1359599	1526	Pharmacy	224	124	1	7
5	33.85546547	-112.1278972	Cafe Aroma	4d20b04b6e8c3704c6a8fb9f	33.870423	-112.1510179	2709	American Restaurant	178	98	6	7.1
5	33.85546547	-112.1278972	The Good Egg	4a879113f964a520b60420e3	33.80127812	-112.1306384	6037	Breakfast Spot	1679	705	18	7.6
5	33.85546547	-112.1278972	Auntie Anne's	4b804266f964a520c76130e3	33.87412526	-112.1486423	2826	Snack Place	207	164	2	7.1
5	33.85546547	-112.1278972	Michael Kors	56cf6716cd10a99381424ccb	33.873857	-112.1501309	2900	Accessories Store	16	15	0	7.1
5	33.85546547	-112.1278972	The Home Depot	4b65c8dff964a52097ff2ae3	33.80186139	-112.1336049	5990	Hardware Store	1913	547	4	7.5
5	33.85546547	-112.1278972	Outlets at Anthem	4b61e0c6f964a520ae282ae3	33.87410734	-112.1488344	2837	Shopping Mall	9142	5614	32	7
5	33.85546547	-112.1278972	Polo Ralph Lauren Factory Store	4d9f59e88b5741bddcf78240	33.87288417	-112.148718	2731	Men's Store	399	316	2	7
5	33.85546547	-112.1278972	El Encanto Dos	4b60b729f964a5208bf529e3	33.80004607	-112.0585211	8900	Mexican Restaurant	1332	600	19	8
5	33.85546547	-112.1278972	Novelle Nail Salon	4b92eb1df964a520002734e3	33.799265	-112.13102	6262	Spa	217	48	6	7.4
5	33.85546547	-112.1278972	Gap Outlet	4b770054f964a52041732ee3	33.87527926	-112.1486735	2924	Clothing Store	658	477	1	7
5	33.85546547	-112.1278972	Bed Bath & Beyond	4b761a50f964a520db3c2ee3	33.800074	-112.131458	6174	Furniture / Home Store	527	287	1	7.4
5	33.85546547	-112.1278972	Azool Grill	4badc37df964a520b6673be3	33.80006668	-112.1282081	6166	Sports Bar	1299	409	12	7.3
5	33.85546547	-112.1278972	Orange Julius & Dairy Queen	4bf089ec6f8aa5939008c23c	33.79746226	-112.1176028	6526	Dessert Shop	726	267	9	7.4
5	33.85546547	-112.1278972	Streets of New York	4bcba668fb84c9b695581f3e	33.79760491	-112.1204138	6478	Pizza Place	473	189	4	7.3
5	33.85546547	-112.1278972	Denny's	4c03fe9df423a59319fbd016	33.79954576	-112.128557	6225	American Restaurant	793	417	13	7.2
5	33.85546547	-112.1278972	dairy queen	513d51bee4b0c7dba6e315d5	33.79757309	-112.1175613	6515	Ice Cream Shop	69	36	2	7.2
5	33.85546547	-112.1278972	Tramonto East community park	510e894de4b0a3ee54285926	33.80793722	-112.1185091	5361	Park	53	16	1	7
5	33.85546547	-112.1278972	Chili's Grill & Bar	4bb51f826edc76b0f5492f1c	33.79993	-112.130037	6185	Tex-Mex Restaurant	2451	995	23	7.1
5	33.85546547	-112.1278972	City Of Phoenix Sonoran Preserve Dixie Mountain Loop Trails	5134ce70e4b0ed273c3cfffe	33.74117983	-112.0974751	13029	Trail	329	76	3	8.5
5	33.85546547	-112.1278972	Tao Kitchen Asian Bistro	4e839f51d5fb8ba08d536190	33.79717696	-112.1176243	6557	Asian Restaurant	379	137	11	7.1
5	33.85546547	-112.1278972	Cave Creek Regional Park	4f48521ae4b0cf7a06334e5c	33.82885181	-112.0061817	11637	Campground	170	114	1	7.9
6	33.4538786	-111.7925426	Dutch Bros. Coffee	4b425d45f964a5206cd225e3	33.45213013	-111.7879664	467	Coffee Shop	5588	639	40	8.8
6	33.4538786	-111.7925426	Kids that Rip (Skateboard School)	4baac1e2f964a520de843ae3	33.45056729	-111.7866739	658	Skate Park	329	124	5	8.5
6	33.4538786	-111.7925426	Barro's Pizza	4b59150df964a520ab7b28e3	33.43645526	-111.789279	1963	Pizza Place	1058	347	18	9.1
6	33.4538786	-111.7925426	Kwan's Sampan	4b8f13f1f964a520f54733e3	33.45011933	-111.7871979	649	Asian Restaurant	357	151	6	7.9
6	33.4538786	-111.7925426	Sprouts Farmers Market	4b4bd4c5f964a5200ea926e3	33.43619924	-111.7889911	1995	Grocery Store	3140	560	8	8.6
6	33.4538786	-111.7925426	Vito's Pizza and Italian Ristorante	4b3029eef964a5202df724e3	33.45109743	-111.7703539	2083	Italian Restaurant	1236	549	20	8.5
6	33.4538786	-111.7925426	Fry's Marketplace	4b6c7326f964a5201c3b2ce3	33.45046224	-111.8033373	1072	Supermarket	4560	703	12	7.9
6	33.4538786	-111.7925426	Baja Joe's Mexican Cantina	4bbd3a6aa0a0c9b659761b0f	33.45086452	-111.7860276	691	Mexican Restaurant	879	394	20	7.7
6	33.4538786	-111.7925426	Serrano's	4b426017f964a5209ed225e3	33.452694	-111.788046	437	Mexican Restaurant	700	373	6	7.5
6	33.4538786	-111.7925426	Backyard Taco	50eb8a09e4b0727b01907fc5	33.42268295	-111.7982253	3512	Mexican Restaurant	751	371	37	9.1
6	33.4538786	-111.7925426	Zoyo Neighborhood Yogurt	4f5859a7e4b0b27ea15add85	33.43745075	-111.7884205	1868	Frozen Yogurt Shop	354	152	6	7.8
6	33.4538786	-111.7925426	Outback Steakhouse	4b776f8df964a520409a2ee3	33.452261	-111.790194	282	Steakhouse	1048	573	11	7.3
6	33.4538786	-111.7925426	Starbucks	4b07f9b4f964a520c90123e3	33.45111425	-111.8033823	1052	Coffee Shop	3404	605	17	7.4
6	33.4538786	-111.7925426	Anytime Fitness	4d8e17f81a6bba7ae0e15670	33.4525439	-111.7894319	324	Gym / Fitness Center	801	40	0	7.1
6	33.4538786	-111.7925426	Millie's Cafe Puerto Rican Cuisine	4c54d4b0479fc9284d0fc593	33.4155812	-111.7965019	4279	Caribbean Restaurant	131	90	5	8.7
6	33.4538786	-111.7925426	Hohokam Stadium	4b661240f964a5200c122be3	33.4381474	-111.8298903	3885	Baseball Stadium	4964	3206	28	8.3
6	33.4538786	-111.7925426	Starbucks	55ad54d2498e7e70bc822502	33.450082	-111.803641	1114	Coffee Shop	8	8	0	7.2
6	33.4538786	-111.7925426	Rancho de Tia Rosa	4ac7c760f964a520b7b920e3	33.45085079	-111.7633581	2731	Mexican Restaurant	1847	1043	32	7.6
6	33.4538786	-111.7925426	LA Fitness	4c55af9172cf0f47fa70abd6	33.42411602	-111.8047463	3501	Gym / Fitness Center	6755	443	14	7.9
6	33.4538786	-111.7925426	QuikTrip	4af50392f964a520fcf721e3	33.45089068	-111.8424572	4647	Convenience Store	5642	992	5	8.5
6	33.4538786	-111.7925426	Papa Murphy's	4b776d22f964a5209e992ee3	33.45184974	-111.8036401	1055	Pizza Place	196	82	4	7.1
6	33.4538786	-111.7925426	Casa Ramos II	514f6c18e4b0ae534751b6c8	33.41557622	-111.7984524	4298	Mexican Restaurant	163	101	9	8.1
6	33.4538786	-111.7925426	Orange Patch	4cead4858ef78cfa3a15a99b	33.45164931	-111.7480219	4142	Arts & Crafts Store	93	66	1	8
6	33.4538786	-111.7925426	Gene Autry Park	4a517845f964a5200fb11fe3	33.45041746	-111.7427094	4644	Baseball Field	1065	298	4	8.2
6	33.4538786	-111.7925426	Republica Empanada	51c4ac3c498e29ade2521b06	33.41311962	-111.8260151	5500	South American Restaurant	724	287	22	9
6	33.4538786	-111.7925426	Starbucks	4b562d88f964a520cf0328e3	33.45093586	-111.7350006	5354	Coffee Shop	5344	669	13	8.8
6	33.4538786	-111.7925426	Starbucks Coffee	4e4dc277bd41b76bef92ae11	33.43601307	-111.803477	2233	Coffee Shop	28	15	1	7.3
6	33.4538786	-111.7925426	QuikTrip	4bd38a51462cb7133ac0de07	33.41513665	-111.7541212	5598	Convenience Store	2124	544	2	9
6	33.4538786	-111.7925426	QuikTrip	4bc7978c2f94d13a2a3c127f	33.40758539	-111.8058443	5299	Convenience Store	1961	552	7	8.6
6	33.4538786	-111.7925426	Mesa Arts Center	46916e00f964a520a3481fe3	33.41423405	-111.8305041	5649	Performing Arts Venue	6721	3360	45	9.1
6	33.4538786	-111.7925426	Denny's	4b7ce1f4f964a52047a82fe3	33.41548213	-111.804935	4426	American Restaurant	996	439	12	8
6	33.4538786	-111.7925426	Bark Avenue Pet Resort	4ce965c5d99f721e570ab673	33.45143703	-111.763859	2677	Pet Store	215	76	2	7.4
6	33.4538786	-111.7925426	Cindy's Arizona Cafe	4b8bf1d0f964a520e3b332e3	33.45200728	-111.8282975	3327	American Restaurant	837	248	9	7.5
6	33.4538786	-111.7925426	Crackers & Co. Café	4b784229f964a5202fc02ee3	33.4397167	-111.7358871	5493	Breakfast Spot	1502	733	26	8.6
6	33.4538786	-111.7925426	"MAYA New York Pizza, Bar & Grill"	53213aea498ee2d5cc1af0e6	33.44714114	-111.8233718	2960	Italian Restaurant	388	54	3	7.4
6	33.4538786	-111.7925426	Kino Aquatic Center	4adbc2bff964a5207d2a21e3	33.43295447	-111.8149877	3126	Pool	1498	158	3	8.1
6	33.4538786	-111.7925426	Gotham City Comics & Coffee	4cf1a19d286ba09045efb30e	33.41539791	-111.8332289	5712	Comic Shop	2441	668	21	8.5
6	33.4538786	-111.7925426	Firehouse Subs Lindsay Groves	536d0c7e498e5d790878355e	33.45099149	-111.7725378	1885	Sandwich Place	75	38	0	7
6	33.4538786	-111.7925426	Sun Devil Liquors	413ba880f964a5202c1c1fe3	33.42033288	-111.839732	5758	Liquor Store	1044	429	8	8.4
6	33.4538786	-111.7925426	Jalapeño Bucks	55384a27498e7eb81235cc0a	33.47852351	-111.7532828	4562	Mexican Restaurant	118	31	2	7.8
6	33.4538786	-111.7925426	Café Mix Greek & American Food	4b25b7c3f964a520a67524e3	33.45103311	-111.7353788	5318	Greek Restaurant	834	287	11	8.1
6	33.4538786	-111.7925426	Rosa's Mexican Grill	4c5365eb4623be9a685402f1	33.42335477	-111.8241043	4487	Mexican Restaurant	582	317	17	7.7
6	33.4538786	-111.7925426	Filiberto's	4afe8c67f964a520912f22e3	33.41551274	-111.7991103	4314	Mexican Restaurant	497	200	12	7.7
6	33.4538786	-111.7925426	Worth Takeaway	56d1e6c1498ee9910fa073e5	33.415292	-111.837506	5991	Sandwich Place	102	52	2	8.5
6	33.4538786	-111.7925426	Walgreens	4b871ecef964a520c5b131e3	33.43780747	-111.7356632	5577	Pharmacy	654	200	1	8.2
6	33.4538786	-111.7925426	The Grid: Games And Growlers	5606d755498e5344a5a76445	33.4059946	-111.7875239	5350	Bar	320	110	1	8
6	33.4538786	-111.7925426	Haven Burger	4d9cb0ecc593a1cdd3424f19	33.41551244	-111.8183261	4896	Burger Joint	181	120	6	7.8
6	33.4538786	-111.7925426	George's Gyros and Pasta	4c002c2a369476b044fd8e1f	33.41974133	-111.8396916	5798	Greek Restaurant	643	258	15	8.3
6	33.4538786	-111.7925426	Walgreens	4bfff860ca1920a11398ed81	33.45122676	-111.7714477	1981	Pharmacy	663	185	2	7
6	33.4538786	-111.7925426	Arizona Museum of Natural History	4abe9264f964a5208d8e20e3	33.4166396	-111.8337125	5640	History Museum	1381	1015	30	8.1
7	33.63848588	-112.4204441	Winco Foods	558f2a4b498ebc1f44c347de	33.63754841	-112.4225836	224	Market	383	124	7	8.7
7	33.63848588	-112.4204441	Estrella Nails	4dfe7b5dd22d056d59a80e2a	33.64044454	-112.4249584	471	Salon / Barbershop	78	37	12	8.7
7	33.63848588	-112.4204441	Amuse Bouche	4b3a48a2f964a520c16325e3	33.64045322	-112.4257867	541	French Restaurant	337	170	16	8.6
7	33.63848588	-112.4204441	Oregano's Pizza Bistro	57d89832498ece40f1f7b7fa	33.63905	-112.42304	248	Pizza Place	44	28	4	8.4
7	33.63848588	-112.4204441	Yogurtini	51bbf52d498e60a6b08752ba	33.63709041	-112.3959186	2278	Frozen Yogurt Shop	370	138	13	9
7	33.63848588	-112.4204441	Mountainside Fitness	4b676daff964a520574e2be3	33.63715371	-112.3921059	2630	Gym	9710	361	19	9
7	33.63848588	-112.4204441	Barro's Pizza	4b59136ff964a520647b28e3	33.62339	-112.3919373	3131	Pizza Place	1169	421	26	9.3
7	33.63848588	-112.4204441	Fry's Marketplace	4b52287cf964a520466c27e3	33.62295012	-112.4249875	1779	Supermarket	5394	730	23	8.3
7	33.63848588	-112.4204441	Rito's Mexican Food	5127c6e3e4b0fd1161e4518e	33.62644179	-112.3931944	2859	Mexican Restaurant	120	50	8	8.7
7	33.63848588	-112.4204441	Papa Murphy's Take 'n' Bake Pizza	4c8ae5052e333704e63cc841	33.63676322	-112.3950513	2361	Pizza Place	364	124	4	8.5
7	33.63848588	-112.4204441	Lucky's Pizza	4c7ab48197028cfa4401dffe	33.64050162	-112.3945507	2410	Pizza Place	209	98	10	8.4
7	33.63848588	-112.4204441	Big Buddha Chinese Restaurant	4b7e0c82f964a520bfe02fe3	33.62525046	-112.4144697	1573	Chinese Restaurant	632	274	10	8
7	33.63848588	-112.4204441	Culver's	4abd45dcf964a5205d8920e3	33.638488	-112.406799	1264	Fast Food Restaurant	2091	735	28	7.8
7	33.63848588	-112.4204441	Surprise Stadium	472f0afbf964a5200f4c1fe3	33.62818583	-112.378258	4074	Baseball Stadium	5171	2781	23	8.8
7	33.63848588	-112.4204441	Vogue Bistro	4ac30819f964a5200b9b20e3	33.60804742	-112.3925425	4262	French Restaurant	713	312	23	8.5
7	33.63848588	-112.4204441	Starbucks	4a538d7ef964a52066b21fe3	33.639046	-112.390835	2744	Coffee Shop	3127	505	11	8
7	33.63848588	-112.4204441	Booty's	4fb6e959e4b05e956def08e4	33.63699425	-112.3951851	2346	Sports Bar	1272	324	19	7.8
7	33.63848588	-112.4204441	Trader Joe's	4c784920566db60cae2f410e	33.65117841	-112.3664991	5194	Grocery Store	1709	514	12	8.9
7	33.63848588	-112.4204441	Walgreens	4c12fcd5a1010f4703fc4918	33.63937602	-112.4262564	547	Pharmacy	790	237	0	7.4
7	33.63848588	-112.4204441	Frys Fueling Station	4beb719a62c0c928d03de2d4	33.62221977	-112.4262564	1889	Gas Station	1696	298	2	7.6
7	33.63848588	-112.4204441	Dutch Bros Coffee	53a434a3498e60f10d6697dd	33.63816669	-112.3583155	5758	Coffee Shop	696	141	12	9.2
7	33.63848588	-112.4204441	Sam's Club	4a884062f964a5208d0520e3	33.63609678	-112.4149409	575	Warehouse Store	3660	749	11	7.3
7	33.63848588	-112.4204441	Saigon Kitchen	4da0b64d63b5a35de8c8d719	33.63824842	-112.363561	5271	Vietnamese Restaurant	586	292	13	8.5
7	33.63848588	-112.4204441	Sun City Grand Cimarron	4cbb1baaa33bb1f7313f92fd	33.66424398	-112.4263437	2919	Gym / Fitness Center	806	91	1	7.8
7	33.63848588	-112.4204441	Sprouts Farmers Market	4b5ccd23f964a520ba4429e3	33.63722844	-112.3561384	5961	Grocery Store	2718	606	16	8.7
7	33.63848588	-112.4204441	Arizona Traditions Golf Club	4b92b9b4f964a5208c1534e3	33.64186311	-112.4435962	2178	Golf Course	527	178	4	7.5
7	33.63848588	-112.4204441	UNI Sushi & Steak	543340c2498e9f625c626189	33.640351	-112.357822	5807	Sushi Restaurant	169	66	7	8.5
7	33.63848588	-112.4204441	Rita's Italian Ice & Custard	4fab1de6e4b0c3c98aff42e5	33.639391	-112.358588	5733	Ice Cream Shop	388	193	9	8.5
7	33.63848588	-112.4204441	Nick's Diner	4b6f1866f964a52091dc2ce3	33.62677225	-112.3931886	2842	Breakfast Spot	1011	307	23	7.6
7	33.63848588	-112.4204441	QuikTrip	4bf58ebb0c74c9b653511828	33.64935195	-112.3649514	5282	Convenience Store	2240	563	9	8.3
7	33.63848588	-112.4204441	Red Robin Gourmet Burgers	4b592f69f964a5208e8028e3	33.63817871	-112.3618237	5432	Burger Joint	2262	1057	17	8.3
7	33.63848588	-112.4204441	Fry's Food Store	4b8bd52ff964a52095ad32e3	33.64018519	-112.3952026	2346	Supermarket	3015	514	9	7.5
7	33.63848588	-112.4204441	Barnes & Noble	4b1eee13f964a520af2124e3	33.63717519	-112.3521918	6327	Bookstore	2227	710	10	8.6
7	33.63848588	-112.4204441	Texas Roadhouse	55fbba6f498e303de5f6410b	33.65204021	-112.3685371	5041	Steakhouse	141	77	3	8.1
7	33.63848588	-112.4204441	Walgreens	4bc3ae4f74a9a593efedd4f6	33.63917716	-112.3934854	2499	Pharmacy	802	250	2	7.5
7	33.63848588	-112.4204441	Freddy's Frozen Custard and Steakburgers	51256f2de4b0f48090a983c4	33.60874023	-112.3620351	6346	Burger Joint	733	290	16	8.6
7	33.63848588	-112.4204441	Sun City Grand	4bdcb43f2a3a0f47bf06b4b6	33.66539603	-112.4099176	3150	Building	1402	357	4	7.7
7	33.63848588	-112.4204441	Chipotle Mexican Grill	4a7b7c14f964a5202eeb1fe3	33.6382302	-112.3590431	5690	Mexican Restaurant	2812	885	15	8.2
7	33.63848588	-112.4204441	Jersey Mike's Subs	526dc37511d2ace6949ff474	33.63837019	-112.3632991	5296	Deli / Bodega	118	59	2	8
7	33.63848588	-112.4204441	Jimmy John's	4f1dca1fe4b0ce22e7f06e45	33.63807979	-112.3648699	5150	Sandwich Place	696	258	4	8
7	33.63848588	-112.4204441	Surprise Tennis & Racquet Complex	4c9d4f33031337047be15dd5	33.62988046	-112.3715291	4633	Tennis Court	713	135	8	7.8
7	33.63848588	-112.4204441	Cold Stone Creamery	4b5506c7f964a5205bd827e3	33.63827525	-112.3634434	5282	Ice Cream Shop	476	270	10	8
7	33.63848588	-112.4204441	Chen Wok	4b99b6eef964a520cb8d35e3	33.61090745	-112.3583582	6522	Chinese Restaurant	154	88	5	8.3
7	33.63848588	-112.4204441	SUBWAY	4bcb6113b6c49c741a169291	33.62373748	-112.4249002	1692	Sandwich Place	564	224	2	7.2
7	33.63848588	-112.4204441	CVS/pharmacy	53dd2c59498e78a7d7e21947	33.62391429	-112.4273915	1745	Pharmacy	266	28	0	7.2
7	33.63848588	-112.4204441	Starbucks	4dba03926a23e2622d97d751	33.64001162	-112.3951677	2348	Coffee Shop	72	43	1	7.3
7	33.63848588	-112.4204441	Fry's Marketplace	4a69fec0f964a52056cc1fe3	33.61065733	-112.3614181	6287	Supermarket	6279	865	14	8.2
7	33.63848588	-112.4204441	Pretty Nails & Spa	4c13e8b6a5eb76b0b9d4c0b7	33.6375436	-112.4247426	411	Spa	218	60	6	7
7	33.63848588	-112.4204441	Chick-fil-A Surprise Marketplace	4bd0acb5462cb713b7d9d807	33.63826151	-112.3524272	6303	Fast Food Restaurant	2854	829	24	8.1
7	33.63848588	-112.4204441	Fry's Food Store	54159eb2498e1a135be664a3	33.66099627	-112.353193	6716	Grocery Store	348	82	3	8.2
8	33.35349603	-111.6499908	Venezia's Pizzeria	4aef8b4ff964a52030d921e3	33.36564823	-111.6351062	1935	Pizza Place	1443	401	20	8
8	33.35349603	-111.6499908	Yogi's Grill	4c22b5719085d13ae1d986cc	33.37741928	-111.6354322	2987	Asian Restaurant	576	183	9	8.6
8	33.35349603	-111.6499908	Chen's Chinese Restaurant	4bda2d3963c5c9b660242368	33.378301	-111.6333	3167	Chinese Restaurant	375	151	7	8.5
8	33.35349603	-111.6499908	The Hub Grill And Bar	4ec9b33c0aaf9c3ccefccc56	33.38045426	-111.666547	3372	Restaurant	1590	605	33	8.7
8	33.35349603	-111.6499908	Rudy's Burritos	4c1c2431b9f876b020827b46	33.37759674	-111.6342205	3057	Mexican Restaurant	480	181	13	8.4
8	33.35349603	-111.6499908	Augusta Ranch Golf Club	4bd8d82b0115c9b638977580	33.3742287	-111.6311353	2898	Golf Course	654	202	9	8.1
8	33.35349603	-111.6499908	Uncle Bear's Grill and Tap	4b6cd12ff964a5209d562ce3	33.37816	-111.6385174	2945	American Restaurant	1739	733	30	8.1
8	33.35349603	-111.6499908	Starbucks	4a6fd029f964a52005d71fe3	33.37740527	-111.6356596	2976	Coffee Shop	4457	736	23	8.1
8	33.35349603	-111.6499908	The VUE at Augusta Ranch	54764034498e61d2bc2ec89d	33.37180185	-111.6313391	2675	American Restaurant	71	32	3	7.9
8	33.35349603	-111.6499908	Premier Nails & Spa	4be49fafbcef2d7fb4d502e5	33.37714702	-111.637423	2880	Spa	154	71	6	7.9
8	33.35349603	-111.6499908	Fry's Marketplace	577073decd1093303515241f	33.36574257	-111.6032228	4557	Grocery Store	249	52	1	9
8	33.35349603	-111.6499908	Harkins Theatres Superstition Springs 25	4a6d168af964a52083d21fe3	33.38513835	-111.681304	4569	Movie Theater	13559	4243	37	8.5
8	33.35349603	-111.6499908	Filiberto's	4b46c02df964a520c52726e3	33.36366316	-111.6688259	2085	Mexican Restaurant	525	224	5	7.4
8	33.35349603	-111.6499908	Red Robin Gourmet Burgers	4b4d1bd7f964a52052cb26e3	33.38548	-111.6880682	5020	Burger Joint	2705	1269	27	8.8
8	33.35349603	-111.6499908	P.F. Chang's	4b53b6abf964a520d8a827e3	33.3856	-111.68855	5061	Chinese Restaurant	2033	1086	19	8.8
8	33.35349603	-111.6499908	American Furniture Warehouse	52238f6b11d2eb7056a5e0f0	33.33188926	-111.6893125	4376	Furniture / Home Store	977	566	21	8.2
8	33.35349603	-111.6499908	Osaka Japanese Steakhouse	4f926b6c00396d202ede7dd9	33.38561583	-111.6860229	4899	Japanese Restaurant	1049	581	26	8.5
8	33.35349603	-111.6499908	Costco Wholesale	4b13d37ff964a520849923e3	33.38933466	-111.6691787	4370	Warehouse Store	8944	1924	26	8.2
8	33.35349603	-111.6499908	Freddy's Frozen Custard & Steakburgers	5452fa9b498ecfacfde75f4e	33.3907912	-111.6832456	5176	Burger Joint	168	59	6	8.7
8	33.35349603	-111.6499908	Oregano's Pizza Bistro	5796a55e498e06b8c93262ab	33.383347	-111.683909	4580	Pizza Place	49	33	2	8.2
8	33.35349603	-111.6499908	Barro's Pizza	4b59158af964a520bd7b28e3	33.38822607	-111.6839094	4988	Pizza Place	753	346	19	8.5
8	33.35349603	-111.6499908	Michaels	4bd477e55631c9b68161a230	33.32491654	-111.6898951	4888	Arts & Crafts Store	775	407	1	8.4
8	33.35349603	-111.6499908	Starbucks	5284e38111d29100c7d16a84	33.32558938	-111.6874073	4664	Coffee Shop	1710	217	4	8.3
8	33.35349603	-111.6499908	Texas Roadhouse	4b75f74bf964a520c5322ee3	33.32383609	-111.6875454	4806	Steakhouse	2492	1238	21	8.3
8	33.35349603	-111.6499908	Teharu Sushi	54406244498e91ee7cab964c	33.38514204	-111.6875192	4958	Sushi Restaurant	160	63	4	8.4
8	33.35349603	-111.6499908	The Cutting Board	522cb07611d29b18a96d4522	33.37486294	-111.6873795	4211	Café	201	107	14	8
8	33.35349603	-111.6499908	WinCo Foods	4fa030d1e4b0fc3ce42053ea	33.39220116	-111.6827798	5277	Grocery Store	2826	779	24	8.5
8	33.35349603	-111.6499908	Bella Pizza & Pasta	4cf6e567eb096ea87ff5c748	33.36270548	-111.6350945	1723	Italian Restaurant	238	84	4	7.2
8	33.35349603	-111.6499908	Red Koi Japanese Restaurant	4b8897fcf964a5201b0332e3	33.32111544	-111.6853809	4881	Japanese Restaurant	672	282	21	8.2
8	33.35349603	-111.6499908	Salerno's Restaurant & Pizzeria	4bc1289bf8219c747302b310	33.36452727	-111.706419	5388	Italian Restaurant	604	214	16	8.5
8	33.35349603	-111.6499908	In-N-Out Burger	4a5a210ff964a520c1b91fe3	33.3817061	-111.5997643	5627	Burger Joint	3258	1777	28	8.7
8	33.35349603	-111.6499908	Chipotle Mexican Grill	4f4d1fd8e4b039338683b470	33.37950198	-111.6008065	5412	Mexican Restaurant	1608	385	13	8.5
8	33.35349603	-111.6499908	Bed Bath & Beyond	4cacb40636fa6dcb79fde078	33.38185715	-111.6022854	5444	Furniture / Home Store	570	253	3	8.5
8	33.35349603	-111.6499908	Cost Plus World Market	4bccb75c8920b713c59d9edc	33.32559974	-111.6894988	4810	Gourmet Shop	903	478	6	8
8	33.35349603	-111.6499908	"Toys""R""Us"	4ce57704023676ebc3daeab9	33.38881979	-111.6857667	5150	Toy / Game Store	2226	949	4	8.2
8	33.35349603	-111.6499908	BJ's Restaurant and Brewhouse	4a42fca2f964a5206da61fe3	33.38554912	-111.6892485	5104	American Restaurant	3936	1982	48	8.1
8	33.35349603	-111.6499908	Bunna Coffee	4f524bb8e4b07de37b5ef7c8	33.374928	-111.687137	4197	Coffee Shop	77	43	6	7.7
8	33.35349603	-111.6499908	QuikTrip	4ba24788f964a5204ee937e3	33.31488983	-111.6865003	5477	Convenience Store	3066	617	5	8.3
8	33.35349603	-111.6499908	Ulta Beauty	4d51b40c3062a1cdea9d69a3	33.39089774	-111.6812776	5078	Salon / Barbershop	1012	244	3	8.1
8	33.35349603	-111.6499908	Cold Stone Creamery	4bcb8f0a68f976b0cd626183	33.38006356	-111.6874727	4570	Ice Cream Shop	313	229	5	7.9
8	33.35349603	-111.6499908	City Wine and Spirits	50ef5b9b45b0f2b0b80fc595	33.37890107	-111.6902965	4694	Liquor Store	254	53	5	7.9
8	33.35349603	-111.6499908	Rubio's	4b1ef021f964a520cc2124e3	33.37984278	-111.6889832	4662	Mexican Restaurant	1013	429	5	7.9
8	33.35349603	-111.6499908	Lowe's Home Improvement	4b36a635f964a520e23925e3	33.392057	-111.629992	4677	Hardware Store	1825	570	2	7.9
8	33.35349603	-111.6499908	Great Clips	4c0ef11c1281c9b6d8e81d1d	33.37736428	-111.6205493	3814	Salon / Barbershop	256	79	4	7.6
8	33.35349603	-111.6499908	The Cheesecake Factory	4b591f1cf964a520a27d28e3	33.391216	-111.688889	5541	American Restaurant	3336	2020	22	8.3
8	33.35349603	-111.6499908	Chick-fil-A Gilbert Gateway Towne Center	4b770f9df964a52035792ee3	33.32713631	-111.6876369	4568	Fast Food Restaurant	2112	827	13	7.8
8	33.35349603	-111.6499908	Fuddruckers	4b40fa97f964a520a9be25e3	33.3936955	-111.6915134	5909	Burger Joint	1695	979	34	8.5
8	33.35349603	-111.6499908	Kneaders Bakery & Cafe	569d7aeb498ebc46f0c40361	33.39378641	-111.5984484	6563	New American Restaurant	105	33	3	8.6
8	33.35349603	-111.6499908	Sweet Tomatoes	4b994297f964a520656e35e3	33.32636881	-111.68787	4639	Salad Place	2887	1104	20	7.8
8	33.35349603	-111.6499908	Ulta Beauty	4c1d4c3afcf8c9b6f691ab0b	33.38467329	-111.6014994	5689	Salon / Barbershop	558	223	5	8.3
9	33.61007955	-112.0517459	Buddy Stubbs Arizona Harley-Davidson	4b71ef36f964a52024652de3	33.61214512	-112.0359611	1481	Motorcycle Shop	999	387	8	8.7
9	33.61007955	-112.0517459	Starbucks	4b2d958cf964a52039d924e3	33.60679322	-112.0655124	1327	Coffee Shop	4786	937	19	8.2
9	33.61007955	-112.0517459	North Mountain Park	4b8ef4daf964a5200b4133e3	33.59772635	-112.0663049	1926	Trail	5774	1191	26	8.8
9	33.61007955	-112.0517459	Carolina's Mexican Food	4a998686f964a520dc2e20e3	33.59712912	-112.0361824	2039	Mexican Restaurant	3941	1428	43	8.8
9	33.61007955	-112.0517459	Dream City Church	4b5f4c6ef964a520aeb229e3	33.60993735	-112.0319887	1831	Church	7360	1193	33	8.4
9	33.61007955	-112.0517459	Manuel's Mexican Resturant	4b91bc5df964a5209dd333e3	33.6027129	-112.0366055	1625	Mexican Restaurant	790	412	12	8.2
9	33.61007955	-112.0517459	Lookout Mountain	4ba3956af964a5204b4938e3	33.62682682	-112.0481988	1893	Trail	2413	511	15	8.4
9	33.61007955	-112.0517459	Second Home Pet Resort	4c87982c9c808cfa3d8d151e	33.60653328	-112.0635745	1165	Pet Service	800	85	4	7.9
9	33.61007955	-112.0517459	Dunkin Donuts	50de1b46e4b09e22eb06bd9e	33.6079723	-112.0657111	1315	Donut Shop	623	242	4	7.9
9	33.61007955	-112.0517459	Walgreens	4b735266f964a52083a82de3	33.60641374	-112.0645351	1253	Pharmacy	1158	343	1	7.9
9	33.61007955	-112.0517459	Noodle & Rice	4bfb2640d2b720a170b0326a	33.596272	-112.036048	2116	Thai Restaurant	633	160	9	8.5
9	33.61007955	-112.0517459	Shaw Butte Hiking Trails	4e45e00dd164155c0dde8540	33.60335063	-112.0739316	2189	Trail	1325	365	9	8.6
9	33.61007955	-112.0517459	Bamboo House	4b53bd47f964a520d5a927e3	33.608037	-112.066199	1359	Asian Restaurant	786	327	17	7.9
9	33.61007955	-112.0517459	Yoga Pura	4c17b3c3fe5a76b0ebee0015	33.627386	-112.0662814	2350	Yoga Studio	1550	101	3	8.6
9	33.61007955	-112.0517459	Dollar Tree	4cf56b73e308236adb93e0ac	33.605835	-112.0661307	1414	Discount Store	315	143	2	7.9
9	33.61007955	-112.0517459	Lookout Mountain Park	5197895a498e3a3e4b8e8849	33.61842763	-112.0426855	1252	Park	194	65	2	7.8
9	33.61007955	-112.0517459	Ammaccapane's Restaurant	4bcbc1d668f976b07dc36183	33.60944392	-112.0668464	1401	Bar	1434	333	15	7.7
9	33.61007955	-112.0517459	Isa's Pizza	4f8780f0e4b002b9097deb8d	33.60725435	-112.0638248	1163	Pizza Place	222	101	8	7.6
9	33.61007955	-112.0517459	Dairy Queen	4b943336f964a520426e34e3	33.60226127	-112.0365608	1655	Ice Cream Shop	630	268	6	7.7
9	33.61007955	-112.0517459	North Mountain Park Trail 44	4dc0bd00d22da0153340459a	33.58310747	-112.0662176	3288	Trail	1876	434	8	9
9	33.61007955	-112.0517459	Fry's Marketplace	57892621498efc9d695e99ee	33.63866557	-112.0541139	3189	Grocery Store	464	122	1	9.1
9	33.61007955	-112.0517459	Reign of Thai	532e3ebf498eb5e851344de3	33.59600158	-112.0390817	1958	Thai Restaurant	157	80	9	7.9
9	33.61007955	-112.0517459	Different Pointe Of View	413ba880f964a520471b1fe3	33.59171048	-112.0633416	2310	Lounge	1256	1026	29	8
9	33.61007955	-112.0517459	Moon Valley Country Club	4bb7e9413db7b713cac4209a	33.61698293	-112.0774305	2502	Golf Course	2046	385	5	8.2
9	33.61007955	-112.0517459	Souvia Tea	4b085f2bf964a520570a23e3	33.626193	-112.0662707	2242	Tea Room	293	125	8	7.9
9	33.61007955	-112.0517459	Gyrosology	515c8cf7e4b07a8373c3323c	33.62631552	-112.0662816	2254	Greek Restaurant	108	28	6	7.9
9	33.61007955	-112.0517459	Valle Luna	4a553caaf964a520eab31fe3	33.6329111	-112.031275	3171	Mexican Restaurant	5200	1756	58	8.7
9	33.61007955	-112.0517459	Goodfellas Cigar Lounge	4b998dd9f964a5202a8335e3	33.60617459	-112.066145	1403	Smoke Shop	303	55	7	7.5
9	33.61007955	-112.0517459	Hubbard Family Swim School	4b4d2a7af964a5201fcd26e3	33.613114	-112.0138853	3526	Pool	4965	306	14	9.2
9	33.61007955	-112.0517459	Top of North Mountain	4ceea80d3b03f04de70d3bdc	33.58565337	-112.069734	3189	Trail	1683	323	12	8.7
9	33.61007955	-112.0517459	The Falls Water Village @ Pointe Tapatio Cliffs	4cb0dd57eb65b1f7430f70cd	33.59659	-112.06341	1850	Hotel Pool	475	338	2	7.6
9	33.61007955	-112.0517459	Zellas	5253002f11d2bce65c61d272	33.606737	-112.065666	1343	Pizza Place	111	68	2	7.4
9	33.61007955	-112.0517459	Spinato's Pizza	4a4d35aff964a520b6ad1fe3	33.64133667	-112.0473081	3503	Pizza Place	1970	846	47	8.8
9	33.61007955	-112.0517459	Original Breakfast House	513b83f2e4b03c3b08b47706	33.61082077	-112.0129547	3597	Breakfast Spot	1165	567	38	8.9
9	33.61007955	-112.0517459	Sprouts Farmers Market	4c3fcb29da3dc928e780c6b9	33.63921786	-112.0716727	3732	Farmers Market	4851	1006	24	9.1
9	33.61007955	-112.0517459	Hek Yeah BBQ	51aa67b3498ec9b44ab1d315	33.62388229	-112.03125	2443	BBQ Joint	82	64	8	7.8
9	33.61007955	-112.0517459	Fatso's Pizza	4b6388e3f964a52093812ae3	33.60966623	-112.0137745	3520	Pizza Place	1793	390	22	8.7
9	33.61007955	-112.0517459	Dragon Palace	4bb649a1941ad13a06301fe3	33.61241284	-112.0123531	3661	Chinese Restaurant	855	349	24	8.6
9	33.61007955	-112.0517459	Hammered Hog	526d4c4d498e53a92d67f197	33.597365	-112.013926	3781	BBQ Joint	263	125	9	8.8
9	33.61007955	-112.0517459	Arizona Sunrays Gymnastics Academy	511e67d4e4b0b0c71f90857c	33.61192287	-112.014513	3457	Gymnastics Gym	496	59	0	8.3
9	33.61007955	-112.0517459	Krua Thai Cuisine	4b29a67ff964a52020a224e3	33.63968807	-112.047309	3321	Thai Restaurant	709	304	17	8.2
9	33.61007955	-112.0517459	Yogurtini	4c13ed7bf1e0b713d1bd34bc	33.63974911	-112.0669627	3591	Frozen Yogurt Shop	3334	1170	43	8.4
9	33.61007955	-112.0517459	Barro's Pizza	4b59140cf964a520807b28e3	33.62710283	-112.0662922	2325	Pizza Place	971	429	7	7.6
9	33.61007955	-112.0517459	European Wax Center	4dffb86715203795aa5ef7c5	33.63730738	-112.0717193	3551	Health & Beauty Service	734	122	5	8.3
9	33.61007955	-112.0517459	"Scramble, A Breakfast Joint"	4a47e547f964a52043aa1fe3	33.5762009	-112.0654352	3979	Breakfast Spot	5253	2011	71	8.8
9	33.61007955	-112.0517459	Chipotle Mexican Grill	4c0468bef56c2d7f2f491e66	33.63977794	-112.0675508	3616	Mexican Restaurant	4896	1416	21	8.3
9	33.61007955	-112.0517459	Planet Fitness	50760a76e4b05c1d7e65aed1	33.6412303	-112.069408	3834	Gym / Fitness Center	5629	353	18	8.5
9	33.61007955	-112.0517459	Five Guys	4b808240f964a520a07830e3	33.63990095	-112.0676386	3631	Burger Joint	3349	1524	25	8.3
9	33.61007955	-112.0517459	Phoenix Mountain Preserve	4bec0db36295c9b600658808	33.58540235	-112.0822335	3941	Scenic Lookout	620	171	5	8.5
9	33.61007955	-112.0517459	LA Fitness	4b434117f964a5208edd25e3	33.6367549	-112.0714689	3487	Gym / Fitness Center	17410	961	28	8.1
10	33.34316637	-112.1504551	Scooptacular Ice Cream	4bdc8e02afe8c9b6edf84f85	33.37796	-112.17064	4303	Ice Cream Shop	1208	317	30	9.2
10	33.34316637	-112.1504551	Sunrise Donuts	549c3af4498e520a4e173508	33.37874959	-112.1346644	4224	Donut Shop	134	34	6	8.5
10	33.34316637	-112.1504551	Cesar Chavez Park	4ab6d792f964a520447920e3	33.37380223	-112.1359277	3668	Park	1619	667	10	8.1
10	33.34316637	-112.1504551	T Bone Steak House	4bdcf9f7d2e70f47c6790001	33.35418154	-112.0994195	4901	Steakhouse	523	339	13	8.5
10	33.34316637	-112.1504551	Barro's Pizza	516c5c2e39502d3be29cbf53	33.37808542	-112.1728778	4410	Pizza Place	437	170	10	8.1
10	33.34316637	-112.1504551	Red Dragon	4ba588f3f964a5202e1039e3	33.37910296	-112.1690413	4357	Chinese Restaurant	338	112	4	7.9
10	33.34316637	-112.1504551	Aguila Golf Course	4b9e9849f964a52068f236e3	33.36997192	-112.1389376	3170	Golf Course	475	230	7	7.6
10	33.34316637	-112.1504551	South Mountain Park	4bba2fff1261d13acb56ea98	33.35225452	-112.0717049	7392	Park	4270	2219	39	8.9
10	33.34316637	-112.1504551	Starbucks	4b8d7617f964a5201dfd32e3	33.3778746	-112.1708511	4303	Coffee Shop	2376	508	18	7.7
10	33.34316637	-112.1504551	Los Dos Molinos	413ba880f964a520b01b1fe3	33.36724201	-112.0738268	7612	Mexican Restaurant	1365	888	34	8.9
10	33.34316637	-112.1504551	Starbucks	4ba96a90f964a520cf253ae3	33.37897	-112.101766	6031	Coffee Shop	3238	585	12	8.1
10	33.34316637	-112.1504551	Jersey Mike's Subs	503ab307e4b01850ca3cbd06	33.37959214	-112.1689542	4404	Deli / Bodega	324	116	3	7.6
10	33.34316637	-112.1504551	Poncho's Mexican Food and Cantina	4c24fce8f7ced13a91c5236d	33.3811159	-112.073561	8304	Mexican Restaurant	2047	924	35	8.8
10	33.34316637	-112.1504551	Gorda's Baja Taco	4d55efcb58856dcb5dd3506d	33.39256021	-112.1322659	5752	Mexican Restaurant	261	101	10	7.8
10	33.34316637	-112.1504551	Laveen Nails	4bedcc48946c0f47c0f2a263	33.37801122	-112.1742808	4466	Nail Salon	437	117	11	7.5
10	33.34316637	-112.1504551	Telegraph Pass Trailhead	4d19f120bb488cfa4d0dc1d4	33.31769811	-112.066606	8298	Trail	1738	440	12	8.5
10	33.34316637	-112.1504551	Dobbins Lookout	4c127b65a9c220a19e0f549d	33.34518415	-112.0585909	8545	Scenic Lookout	1272	990	14	8.6
10	33.34316637	-112.1504551	Chipotle Mexican Grill	51f08d0d498ee11bc5405ce5	33.37932362	-112.1689016	4375	Mexican Restaurant	659	178	2	7.4
10	33.34316637	-112.1504551	LA Fitness	4cafd99faef16dcb2e3aac54	33.37613444	-112.1707703	4127	Gym	10147	493	15	7.4
10	33.34316637	-112.1504551	Smashburger	5783f1f8498e7f18842f722f	33.376595	-112.1714	4199	Burger Joint	44	18	0	7.4
10	33.34316637	-112.1504551	The Home Depot	4b3f8469f964a52044a825e3	33.37974518	-112.1725506	4560	Hardware Store	1746	446	13	7.4
10	33.34316637	-112.1504551	CVS/Pharmacy	4c4cd8fee906c9288062053b	33.378393	-112.0997715	6130	Pharmacy	1863	217	3	7.7
10	33.34316637	-112.1504551	Wingstop	51104d163d7c2f14d10c4449	33.3793884	-112.1688085	4378	Wings Joint	209	84	2	7.4
10	33.34316637	-112.1504551	Starbucks at Safeway	5470a9e2498ea09f2bb7fd20	33.37655548	-112.1667185	4012	Coffee Shop	55	8	0	7.3
10	33.34316637	-112.1504551	Silver Pony	4c9303016cfea0937bdbb68b	33.363612	-112.082778	6691	Dive Bar	882	196	5	7.8
10	33.34316637	-112.1504551	Fry's Food Store	4b2ee833f964a52020e824e3	33.37904501	-112.1702231	4396	Supermarket	4929	709	7	7.3
10	33.34316637	-112.1504551	Spurr Lounge	4aa6aa08f964a5208c4a20e3	33.3832146	-112.1828793	5381	Bar	899	174	7	7.5
10	33.34316637	-112.1504551	Safeway	4b26e61ff964a520b68224e3	33.37641831	-112.1667185	3998	Supermarket	2710	469	4	7.3
10	33.34316637	-112.1504551	Pyramid Trailhead	50cfae6fe4b0ffd5bb791d0e	33.30325671	-112.0999086	6468	Trail	239	61	4	7.6
10	33.34316637	-112.1504551	Vee Quiva Hotel & Casino	4a85da31f964a5206fff1fe3	33.3099654	-112.1573864	3751	Casino	3043	1163	33	7.2
10	33.34316637	-112.1504551	Desert Foothills Park	4b2acdb3f964a520f8af24e3	33.30509922	-112.0594118	9469	Park	1089	320	1	8.4
10	33.34316637	-112.1504551	QuikTrip	4b6afe69f964a52044eb2be3	33.37709326	-112.1332455	4101	Convenience Store	2328	513	1	7.2
10	33.34316637	-112.1504551	Starbucks	4fc94580d4f24895b4467cc3	33.36984007	-112.1847014	4353	Coffee Shop	21	12	0	7.2
10	33.34316637	-112.1504551	Oasis Raspados	4c1bfd35b9f876b0f0317b46	33.38571251	-112.07298	8620	Dessert Shop	306	140	6	8
10	33.34316637	-112.1504551	Starbucks	50f19feae4b09fca7aebe1f5	33.37927031	-112.1707471	4439	Coffee Shop	70	20	0	7.2
10	33.34316637	-112.1504551	Li's Bowl	4bb142aef964a520d6873ce3	33.38929274	-112.1342781	5350	Asian Restaurant	412	164	14	7.3
10	33.34316637	-112.1504551	QuikTrip	4c07c7db221620a11e4ff775	33.42252022	-112.1690413	9000	Convenience Store	2044	438	5	8.1
10	33.34316637	-112.1504551	Goodwill	4f75c38de4b0e09b8b2e1450	33.37993732	-112.1022082	6072	Thrift / Vintage Store	371	150	0	7.4
10	33.34316637	-112.1504551	South Mountain	4eb566fef790d87d02b449e1	33.36652882	-112.0392913	10658	Mountain	993	398	5	8.7
10	33.34316637	-112.1504551	Yoasis Self-Serve Frozen Yogurt	4cafdc97c5e6a1cd9d9fd0f6	33.30641198	-112.0550168	9774	Frozen Yogurt Shop	786	228	9	8.1
10	33.34316637	-112.1504551	Pro's Ranch Markets	4d7fd0442f6b2d43b351b388	33.392905	-112.0719738	9159	Grocery Store	699	312	8	7.8
10	33.34316637	-112.1504551	Jimmy John's	56be349d498e3d919e66242c	33.378969	-112.166211	4246	Sandwich Place	19	10	0	7
10	33.34316637	-112.1504551	Comedor Guadalajara	4b4ebdf1f964a520d8f426e3	33.42931899	-112.0741819	11926	Mexican Restaurant	2731	1263	54	8.8
10	33.34316637	-112.1504551	YMCA	4a99a010f964a520852f20e3	33.29695036	-112.0598019	9878	Gym	3102	319	6	8
10	33.34316637	-112.1504551	Walgreens	4b81d00df964a5206abf30e3	33.37703923	-112.1689656	4144	Pharmacy	893	238	3	7
10	33.34316637	-112.1504551	Loco Patron	4b11c517f964a5204b8423e3	33.30420568	-112.055397	9848	Bar	4078	646	30	7.9
10	33.34316637	-112.1504551	Lo-Lo's Chicken & Waffles	413ba880f964a520ae1b1fe3	33.43527344	-112.0743656	12455	Southern / Soul Food Restaurant	5815	3468	116	9.2
10	33.34316637	-112.1504551	U.S. Bank ATM	4cfefe0266ee9eb0fe4ba74e	33.37644397	-112.1665904	3996	ATM	34	10	1	6.9
10	33.34316637	-112.1504551	Vistal Golf Club	4b8592ecf964a520506631e3	33.35828516	-112.0644827	8169	Golf Course	516	286	4	7.5
10	33.34316637	-112.1504551	AT&T	4ac7eeb3f964a520aaba20e3	33.37888316	-112.166615	4250	Mobile Phone Shop	181	67	4	7
11	33.3813455	-111.922132	Whole Foods Market	4a8b60c7f964a5204d0c20e3	33.37968381	-111.9295225	711	Grocery Store	9706	2721	52	8.6
11	33.3813455	-111.922132	Barro's Pizza	51f47cbb498e86730ad0820c	33.37902	-111.925497	406	Pizza Place	367	209	9	8
11	33.3813455	-111.922132	Sushi Time	4b9c41e5f964a5208f5936e3	33.379122	-111.930007	772	Japanese Restaurant	632	267	11	8.5
11	33.3813455	-111.922132	Starbucks	51894855498e6f958c6e86ee	33.38240125	-111.9263436	408	Coffee Shop	1976	508	10	8
11	33.3813455	-111.922132	QuikTrip	4aa838d7f964a5202f5020e3	33.37863927	-111.927182	557	Convenience Store	5226	1407	9	8.1
11	33.3813455	-111.922132	Jerry's Artarama	4c55dcbd4623be9a0c512af5	33.38367355	-111.9253957	398	Arts & Crafts Store	377	183	3	7.6
11	33.3813455	-111.922132	Aloha Yogurt	4b7cbf04f964a520eca32fe3	33.3780196	-111.9362645	1364	Frozen Yogurt Shop	1692	549	20	9.1
11	33.3813455	-111.922132	Chipotle Mexican Grill	4b47798df964a520473326e3	33.37789512	-111.9290972	752	Mexican Restaurant	6380	2134	47	8
11	33.3813455	-111.922132	The Watershed	52a399cd11d2996ebaae5437	33.37616307	-111.9199683	610	American Restaurant	521	287	16	7.8
11	33.3813455	-111.922132	Starbucks	4b060606f964a520a6e722e3	33.37908909	-111.9295854	736	Coffee Shop	6192	1584	22	7.8
11	33.3813455	-111.922132	Smashburger	4c565ff0af95b713f6fecf57	33.37777417	-111.9292688	773	Burger Joint	3959	2000	39	7.9
11	33.3813455	-111.922132	U.S. Egg Tempe	4a6c9153f964a520dbd01fe3	33.37785181	-111.9375745	1487	Breakfast Spot	4161	1856	61	8.6
11	33.3813455	-111.922132	Electric Haven Barbershop	4d153d1ecc216ea80b3362d3	33.39198027	-111.9109789	1573	Salon / Barbershop	960	318	17	8.8
11	33.3813455	-111.922132	Fry's Marketplace	4b987905f964a520c24335e3	33.37955181	-111.9106005	1090	Supermarket	6162	1428	16	8
11	33.3813455	-111.922132	Flo's Asian Kitchen	559f17dc498e7146226cce4e	33.37855069	-111.930192	811	Asian Restaurant	205	114	3	7.7
11	33.3813455	-111.922132	Sprouts Farmers Market	4a888fc3f964a520ea0620e3	33.39409707	-111.9113515	1737	Farmers Market	6533	1653	35	9.1
11	33.3813455	-111.922132	Kiwanis Park	4ae46bedf964a5207e9a21e3	33.37481654	-111.9384944	1685	Park	7619	2453	39	9.2
11	33.3813455	-111.922132	Jimmy John's	4b7449ccf964a520c2d22de3	33.37921412	-111.9298427	754	Sandwich Place	1925	734	19	7.6
11	33.3813455	-111.922132	Cold Stone Creamery	4af3b007f964a52020ef21e3	33.39182	-111.909748	1638	Ice Cream Shop	1017	589	10	8.6
11	33.3813455	-111.922132	Los Reyes De La Torta	51646415e4b08d7ba2e24f49	33.39327418	-111.9137502	1539	Mexican Restaurant	571	393	18	8.4
11	33.3813455	-111.922132	Solo Café	4a3be689f964a520e4a01fe3	33.37784584	-111.9387102	1589	Coffee Shop	3198	784	36	8.5
11	33.3813455	-111.922132	Baseline Pub	413ba880f964a520061b1fe3	33.37799051	-111.9063736	1511	Pub	3936	560	18	8.3
11	33.3813455	-111.922132	Venezia's Pizzeria	4b0cb59bf964a520324123e3	33.3914628	-111.9386673	1905	Pizza Place	9878	2471	94	9.3
11	33.3813455	-111.922132	Fallout Games	4eac7e23b8f765aba0f1d303	33.392235	-111.9079775	1788	Video Game Store	315	163	7	8.9
11	33.3813455	-111.922132	Pier 54	4b776180f964a52083962ee3	33.37542569	-111.9198288	692	American Restaurant	1324	632	20	7.5
11	33.3813455	-111.922132	Dunkin Donuts	5706ca9ccd1027f1eb21992b	33.379933	-111.92783	552	Donut Shop	224	52	0	7.4
11	33.3813455	-111.922132	Beijing Express	532118ec498ebfc323711a32	33.37812441	-111.9364857	1381	Chinese Restaurant	62	33	2	8
11	33.3813455	-111.922132	Spirit Of Yoga	4dcf1013d22deadedd633930	33.39353081	-111.9152873	1498	Yoga Studio	934	127	5	8.1
11	33.3813455	-111.922132	Tempe History Museum	4b896ad7f964a5204b3432e3	33.39204967	-111.9274148	1288	History Museum	746	337	5	7.8
11	33.3813455	-111.922132	Qdoba Mexican Grill	4a8226d7f964a520c1f81fe3	33.37905667	-111.9289752	685	Mexican Restaurant	1919	899	15	7.3
11	33.3813455	-111.922132	Dutch Bros. Coffee	4b7464c9f964a520c1d92de3	33.39402022	-111.9393888	2136	Coffee Shop	7699	1348	58	9.1
11	33.3813455	-111.922132	Dutch Bros. Coffee	4ebd107d61af9815e0f894af	33.36283216	-111.9283639	2140	Coffee Shop	5088	798	32	9.1
11	33.3813455	-111.922132	Mark's Café	4e84aec046900ab1714981cf	33.36538989	-111.9290276	1888	American Restaurant	951	287	14	8.4
11	33.3813455	-111.922132	Thrive! Acai Bowls & Smoothies	50f1c6f2e4b00ee58179c383	33.39402939	-111.9108275	1760	Juice Bar	478	191	11	8.2
11	33.3813455	-111.922132	European Wax Center	54cb1a23498e1f08d77095b4	33.37880435	-111.9296971	757	Health & Beauty Service	10	8	0	7.3
11	33.3813455	-111.922132	Game Depot	4b5b7653f964a520e5ff28e3	33.395001	-111.9104021	1870	Toy / Game Store	1252	310	8	8.3
11	33.3813455	-111.922132	Changing Hands Bookstore	4a3d5feff964a52031a21fe3	33.362509	-111.9124498	2281	Bookstore	4877	2166	54	9.2
11	33.3813455	-111.922132	Spokes On Southern	50ee3b27f31c79037811ba7d	33.39418594	-111.9146991	1587	American Restaurant	3088	1027	29	7.9
11	33.3813455	-111.922132	Tampopo Ramen	563d0e26cd109517ee0f38ac	33.393978	-111.908675	1882	Noodle House	287	170	8	8.2
11	33.3813455	-111.922132	Zoyo Neighborhood Yogurt	4d5d5cd9524fa35d11be5335	33.36413223	-111.911999	2135	Frozen Yogurt Shop	1634	591	10	8.7
11	33.3813455	-111.922132	Little India	4ba419bff964a520918138e3	33.377724	-111.9069992	1463	Indian Restaurant	882	314	19	7.7
11	33.3813455	-111.922132	Capoeira Brasil Tempe	4b74e8aaf964a520acf72de3	33.36345109	-111.9271994	2046	Martial Arts Dojo	1515	30	2	8.5
11	33.3813455	-111.922132	Lowe's Home Improvement	4ae49682f964a520fc9b21e3	33.376681	-111.931149	985	Hardware Store	5085	1371	20	7.4
11	33.3813455	-111.922132	Yucca Tap Room	413ba880f964a520421c1fe3	33.39259365	-111.9405263	2119	Bar	10773	3120	82	8.5
11	33.3813455	-111.922132	Andrew's BBQ	4ba42973f964a520e48738e3	33.36488087	-111.9304061	1987	BBQ Joint	585	296	15	8.3
11	33.3813455	-111.922132	Trader Joe's	4a94876af964a520e72120e3	33.36196864	-111.9121885	2346	Grocery Store	7546	2100	23	9.1
11	33.3813455	-111.922132	La Fonda	4f91d2dae4b0b745b268aa31	33.37803353	-111.9058612	1556	Mexican Restaurant	1374	660	22	7.8
11	33.3813455	-111.922132	AMF Tempe Village Lanes	413ba880f964a520f31a1fe3	33.38472538	-111.9250511	463	Bowling Alley	4352	1950	14	7.1
11	33.3813455	-111.922132	YC's Mongolian Grill	4a4d2752f964a52098ad1fe3	33.39493272	-111.909599	1909	Asian Restaurant	3098	1551	37	8.1
11	33.3813455	-111.922132	Planet Fitness	51f921635019647b00191691	33.395822	-111.910287	1951	Gym / Fitness Center	3182	288	18	8.1
12	33.72095158	-112.1126916	Harkins Theatres Norterra 14	4b33c7caf964a5200b1f25e3	33.71519952	-112.1140264	652	Multiplex	13922	3826	38	9.1
12	33.72095158	-112.1126916	Chipotle Mexican Grill	4b4e1eeff964a520f0e126e3	33.71458189	-112.1126816	709	Mexican Restaurant	4172	1316	20	8.8
12	33.72095158	-112.1126916	Mellow Mushroom	4b7b0e45f964a520d54e2fe3	33.71347031	-112.113888	840	Pizza Place	10828	3753	95	8.8
12	33.72095158	-112.1126916	Elevate Coffee Company	4c2e3c804e132d7fb6d09ddf	33.71559431	-112.1138477	605	Coffee Shop	4150	1031	33	8.5
12	33.72095158	-112.1126916	Sauce	4ad2905df964a52033e220e3	33.7149203	-112.11306	672	Pizza Place	2626	1204	36	8.5
12	33.72095158	-112.1126916	Charming Charlie	4c5369151b46c9b67d2ee2cc	33.71519059	-112.1125492	641	Accessories Store	1090	685	2	8.4
12	33.72095158	-112.1126916	Pita Jungle	4e7e2b30be7bddefa446766d	33.7152325	-112.1134384	640	Mediterranean Restaurant	3768	1445	32	8.3
12	33.72095158	-112.1126916	Lowe's Home Improvement	4c94f35238dd8cfaf2d2cd62	33.710916	-112.110027	1144	Hardware Store	3719	971	6	8.5
12	33.72095158	-112.1126916	BevMo!	4b5919ccf964a520927c28e3	33.71432706	-112.1105433	763	Wine Shop	1618	753	8	8.1
12	33.72095158	-112.1126916	Ulta	5251c13811d233ad17fddccc	33.70903958	-112.1103005	1344	Cosmetics Shop	134	67	2	8.3
12	33.72095158	-112.1126916	The Shops At Norterra	4b9eda33f964a520480637e3	33.71433213	-112.112373	737	Shopping Mall	6332	1239	11	8
12	33.72095158	-112.1126916	Homewood Suites by Hilton Phoenix North-Happy Valley	4bbc2b41e5b0d13aa3026f7c	33.7070358	-112.1135704	1551	Hotel	1019	241	8	8.3
12	33.72095158	-112.1126916	Yogurtini	4e223d54483b041af1f5fc90	33.71509455	-112.1141589	666	Frozen Yogurt Shop	906	487	7	7.9
12	33.72095158	-112.1126916	Red Robin Gourmet Burgers	4b2c2f7ff964a52055c324e3	33.7120156	-112.112335	995	Burger Joint	4326	2049	36	8
12	33.72095158	-112.1126916	P.F. Chang's	4b11fb17f964a520ca8723e3	33.71449	-112.11225	720	Chinese Restaurant	4112	1966	31	7.9
12	33.72095158	-112.1126916	Panera Bread	57c08c52498ec88464df409f	33.714438	-112.110871	744	Bakery	23	18	0	7.9
12	33.72095158	-112.1126916	Olive Garden	4b5ce872f964a520514a29e3	33.71206135	-112.1137717	994	Italian Restaurant	3046	1666	22	7.9
12	33.72095158	-112.1126916	Texas Roadhouse	5760dc08498e66ac35c8c4ca	33.71529738	-112.1147316	657	Steakhouse	68	47	1	7.8
12	33.72095158	-112.1126916	Victoria's Secret PINK	4bd37f1b462cb713f2a1de07	33.71483538	-112.1121168	682	Lingerie Store	1167	597	5	7.8
12	33.72095158	-112.1126916	Barnes & Noble	4b416a13f964a52067c625e3	33.71142464	-112.1140438	1067	Bookstore	2029	999	8	7.9
12	33.72095158	-112.1126916	Buffalo Wild Wings	4c12e1dca9c220a18ee1549d	33.71494354	-112.1134093	672	Wings Joint	7748	2888	45	7.8
12	33.72095158	-112.1126916	Jersey Mike's Subs	4d126f112e58370429f9e3d1	33.71157698	-112.1113124	1051	Deli / Bodega	1478	562	18	7.9
12	33.72095158	-112.1126916	City Of Phoenix Sonoran Preserve Dixie Mountain Loop Trails	5134ce70e4b0ed273c3cfffe	33.74117983	-112.0974751	2656	Trail	329	76	3	8.5
12	33.72095158	-112.1126916	Cafe Zupas	521e52a304939a8ad5851002	33.71511945	-112.1140438	661	Soup Place	521	295	14	7.6
12	33.72095158	-112.1126916	Cost Plus World Market	4b6b75f5f964a520440a2ce3	33.71104882	-112.1141195	1110	Grocery Store	974	560	6	7.7
12	33.72095158	-112.1126916	Ulta Beauty	5349d45a498e3623c9edb73b	33.70897234	-112.1099395	1357	Salon / Barbershop	31	22	0	7.8
12	33.72095158	-112.1126916	Panda Express	4b900e8ff964a520ec7233e3	33.71171216	-112.1111441	1038	Chinese Restaurant	1098	591	8	7.6
12	33.72095158	-112.1126916	Greek Pita	4caf6f0039458cfa1670fa9f	33.71105969	-112.1112192	1109	Greek Restaurant	1128	456	14	7.7
12	33.72095158	-112.1126916	Starbucks	4bcc72c4937ca5932e13ab92	33.72002249	-112.1120237	120	Café	795	237	1	7.4
12	33.72095158	-112.1126916	Game Stop	4bbfd48ab492d13ab96ea360	33.70894555	-112.1140914	1342	Video Game Store	512	218	2	7.6
12	33.72095158	-112.1126916	Streets Of New York	4c4754c619fde21e4df40776	33.71230157	-112.1018472	1391	Pizza Place	553	312	4	7.6
12	33.72095158	-112.1126916	Massage Envy - North Phoenix	4c03e59d187ec9282e3fb67b	33.71418161	-112.1095367	808	Spa	685	178	6	7.4
12	33.72095158	-112.1126916	Starbucks	4d4870ab4c9ef04df7c66a15	33.71104348	-112.1113909	1109	Coffee Shop	4652	1236	32	7.5
12	33.72095158	-112.1126916	European Wax Center	4eeb79a72c5beea620818788	33.71389993	-112.1095378	837	Health & Beauty Service	187	54	1	7.4
12	33.72095158	-112.1126916	Jamba Juice The Shops at Norterra	55c409d4498eba36fb6a004c	33.71442735	-112.1107059	749	Smoothie Shop	63	42	0	7.4
12	33.72095158	-112.1126916	Times Square Neighborhood Italian Restaurant	4ad7c8dbf964a520a90e21e3	33.68420113	-112.116326	4104	Italian Restaurant	2328	843	62	8.9
12	33.72095158	-112.1126916	CVS/pharmacy	51964b00501983bcc0773ab2	33.74192076	-112.1069238	2394	Pharmacy	671	71	0	7.8
12	33.72095158	-112.1126916	Happy Valley Towne Center	4c6ec2c75d089c74a33108c3	33.71101882	-112.1114299	1111	Shopping Mall	3748	769	3	7.4
12	33.72095158	-112.1126916	Papa Murphy's	4cbf88da19ceb1f7111424cd	33.714089	-112.1403104	2668	Pizza Place	385	136	1	7.9
12	33.72095158	-112.1126916	Residence Inn Phoenix North Happy Valley	51e704b02fc612f0a5cb2cdc	33.7103693	-112.1036882	1443	Hotel	407	118	1	7.5
12	33.72095158	-112.1126916	Paradise Bakery & Cafe	4b69d281f964a5205db62be3	33.71455017	-112.1108007	733	Bakery	3841	1282	21	7.3
12	33.72095158	-112.1126916	Ah-So Sushi & Steak Restaurant	4aa30e24f964a520274320e3	33.7140801	-112.1117792	769	Sushi Restaurant	2171	1241	34	7.3
12	33.72095158	-112.1126916	Cafe Rio	55c65350498e81ab641a8779	33.71118053	-112.1113367	1094	Mexican Restaurant	186	81	1	7.3
12	33.72095158	-112.1126916	Smashburger	4ee24bc8754aeee76b611b48	33.71468794	-112.1131732	698	Burger Joint	1985	996	29	7.2
12	33.72095158	-112.1126916	Culver's	4aa5af0df964a520274920e3	33.683414	-112.097986	4394	Fast Food Restaurant	2700	1049	26	8.5
12	33.72095158	-112.1126916	Pier 1 Imports	4bd45d71caff9521a888d6f0	33.71052874	-112.1147007	1175	Furniture / Home Store	678	150	0	7.3
12	33.72095158	-112.1126916	Paseo Highlands Park	4cb7a48add41a35d43e7d4a0	33.69607561	-112.1322251	3307	Park	1113	403	10	7.9
12	33.72095158	-112.1126916	Sonoran Preserve	5130c629e4b0303cca7c1461	33.74105013	-112.0974518	2645	Trail	100	50	4	7.6
12	33.72095158	-112.1126916	Cracker Barrel Old Country Store	4a705287f964a52048d71fe3	33.68169321	-112.1139565	4371	American Restaurant	3206	1707	25	8.3
12	33.72095158	-112.1126916	T.J. Maxx	4b673173f964a52092402be3	33.708994	-112.111116	1339	Department Store	894	502	1	7.3
13	33.647406	-112.2041108	Oregano's Pizza Bistro	51e5f95e498efc97bda1a8ab	33.63860052	-112.2040464	980	Pizza Place	1257	763	37	8.4
13	33.647406	-112.2041108	BevMo!	4a739947f964a520e8dc1fe3	33.63866264	-112.2035807	974	Wine Shop	1906	983	6	8.4
13	33.647406	-112.2041108	Dubina Brewing Co.	53fbd80f498ea0a7aad35e27	33.63985556	-112.2023523	856	Brewery	595	241	11	8
13	33.647406	-112.2041108	Bubble Cups	514e2a72e4b089e308339acd	33.637152	-112.201202	1172	Snack Place	374	96	5	8.3
13	33.647406	-112.2041108	Fry's Marketplace	4f356f14d065e23b817f1f00	33.63740837	-112.2004603	1163	Grocery Store	4234	1064	9	8.2
13	33.647406	-112.2041108	Total Wine & More	4a4fcab7f964a520b2af1fe3	33.643445	-112.220931	1619	Wine Shop	3601	1322	14	8.9
13	33.647406	-112.2041108	Cafe Zupas Glendale	535e883e498ec83eb5cdc695	33.63998257	-112.219811	1673	Restaurant	415	186	11	9
13	33.647406	-112.2041108	The Greek Wraps	4a5a9fd0f964a520aaba1fe3	33.63767445	-112.2174723	1645	Greek Restaurant	1556	586	20	8.9
13	33.647406	-112.2041108	Glendale Black Bear Diner	5490a9c9498e13e7e9dce0a5	33.6383632	-112.1906207	1605	American Restaurant	2876	1104	48	8.7
13	33.647406	-112.2041108	Pita Jungle	4a81a976f964a5202ff71fe3	33.63976657	-112.2210385	1784	Mediterranean Restaurant	4561	1857	49	9
13	33.647406	-112.2041108	The Home Depot	4c5d7d147735c9b6301c8f72	33.6395303	-112.2062353	898	Hardware Store	4498	863	19	7.8
13	33.647406	-112.2041108	Fresh Wasabi	4a3989f5f964a5208f9f1fe3	33.63726314	-112.199781	1198	Sushi Restaurant	1108	408	17	8
13	33.647406	-112.2041108	Tortoise & Hare Sports	4fa6ff6de4b0fd4c402a39ff	33.644121	-112.221927	1691	Sporting Goods Shop	200	110	5	8.6
13	33.647406	-112.2041108	SummerWinds Nursery	4bb763e1d535b713016cdd21	33.63902092	-112.198911	1050	Flower Shop	205	118	6	7.9
13	33.647406	-112.2041108	Cosmic Soup Recording	4ddf2081d4c0935ddd55fd14	33.64679629	-112.1885848	1440	Record Shop	124	91	3	8.2
13	33.647406	-112.2041108	Sushi Catcher	51327c41e4b01507eca50700	33.63909378	-112.1958788	1199	Sushi Restaurant	415	152	10	7.9
13	33.647406	-112.2041108	Orangetheory Fitness Arrowhead	521fa1af11d297ce836e35fb	33.64272992	-112.220917	1642	Gym / Fitness Center	1057	41	1	8.2
13	33.647406	-112.2041108	AMC Arrowhead 14	4ae3c3a0f964a520bd9821e3	33.64301918	-112.2255567	2046	Movie Theater	5775	2203	49	8.8
13	33.647406	-112.2041108	Firehouse Subs	4db0852ea86e63d21159ca2a	33.665434	-112.2019685	2016	Sandwich Place	1698	682	19	8.7
13	33.647406	-112.2041108	Cost Plus World Market	4bdc89c1c79cc9282b0587e9	33.63708062	-112.218571	1765	Miscellaneous Shop	1154	557	3	8.4
13	33.647406	-112.2041108	Tokyo Lobby	4a8dfa0ef964a520a61120e3	33.63852389	-112.1838573	2121	Sushi Restaurant	1717	697	29	8.9
13	33.647406	-112.2041108	Jamba Juice 75th & Bell	4cd43f1cbaf2f04db362b3a3	33.63780723	-112.217479	1636	Juice Bar	2310	881	21	8.2
13	33.647406	-112.2041108	Carambas Mexican Restaurant	4a4be2b9f964a520d4ac1fe3	33.63718044	-112.2014849	1164	Mexican Restaurant	1700	610	14	7.8
13	33.647406	-112.2041108	Which Wich? Superior Sandwiches	50b3a4da90e717fb6aea6be1	33.63764238	-112.2228963	2052	Sandwich Place	812	339	6	8.6
13	33.647406	-112.2041108	Beauty Brands	4bbcdf65593fef3b52bf0256	33.63767443	-112.2190076	1754	Cosmetics Shop	435	204	7	8.3
13	33.647406	-112.2041108	Pei Wei	4ad69aecf964a520f90721e3	33.66597441	-112.2040813	2067	Asian Restaurant	3376	1343	20	8.6
13	33.647406	-112.2041108	Rubio's	4bddeda5587b2d7f38a55509	33.63790298	-112.2183323	1689	Mexican Restaurant	1145	501	8	8.1
13	33.647406	-112.2041108	The LEGO Store	4cbe30e98db3b60cbfff7078	33.64197	-112.224582	1991	Toy / Game Store	1907	817	15	8.3
13	33.647406	-112.2041108	Victoria's Secret PINK	4d20e4fbb69c6dcbea4d7495	33.6421189	-112.2254471	2063	Lingerie Store	1758	898	3	8.4
13	33.647406	-112.2041108	Trader Joe's	4ada2800f964a520431f21e3	33.6391136	-112.2261422	2240	Grocery Store	3981	1263	14	8.6
13	33.647406	-112.2041108	PetSmart	4ab540f1f964a5208f7320e3	33.63959611	-112.2154973	1367	Pet Store	2623	739	3	7.8
13	33.647406	-112.2041108	Cheers Tavern	4a358186f964a520139d1fe3	33.6373575	-112.1878683	1875	Sports Bar	1647	458	4	8.2
13	33.647406	-112.2041108	Rock Bottom Restaurant & Brewery	4af637faf964a5205e0222e3	33.63869038	-112.2235483	2046	Brewery	3896	1685	52	8.3
13	33.647406	-112.2041108	Hands In Motion Massage Therapy	5175d400e4b020b9852e06e7	33.641811	-112.2138556	1097	Massage Studio	248	10	6	7.6
13	33.647406	-112.2041108	European Wax Center	4c77f00b566db60c18de3f0e	33.66695819	-112.2053504	2179	Health & Beauty Service	426	140	8	8.4
13	33.647406	-112.2041108	Wildflower Bread Company	512fff2de4b0d576b174d33c	33.64266338	-112.2209054	1643	Bakery	818	380	17	7.9
13	33.647406	-112.2041108	MOD Pizza	57a14f1b498e6fd1ab41648a	33.638596	-112.2198	1753	Pizza Place	36	25	2	7.9
13	33.647406	-112.2041108	Starbucks	4abce91ef964a520a98720e3	33.65252499	-112.1857493	1794	Coffee Shop	3791	935	14	8
13	33.647406	-112.2041108	Arizona Broadway Theatre	4b6b836df964a5205c0d2ce3	33.63443298	-112.2250037	2415	Performing Arts Venue	3034	672	13	8.7
13	33.647406	-112.2041108	Mixteca	4a4be258f964a520d3ac1fe3	33.63785698	-112.2044532	1063	Mexican Restaurant	1391	524	19	7.5
13	33.647406	-112.2041108	Pinoy's Best Gourmet Coffee	4f38213ee4b0532469f1c26e	33.64175575	-112.2239151	1940	Coffee Shop	207	123	8	8.1
13	33.647406	-112.2041108	Cactus Willys Bar and Grill	4a35807ef964a520119d1fe3	33.63924576	-112.1956692	1198	Bar	283	87	2	7.5
13	33.647406	-112.2041108	Raising Cane's	53f65c8c498ee389ab61643a	33.63898021	-112.2298704	2564	Fried Chicken Joint	426	206	9	8.9
13	33.647406	-112.2041108	AJ's Fine Foods	47307678f964a5201d4c1fe3	33.66650574	-112.2052165	2128	Supermarket	4268	1055	23	8.2
13	33.647406	-112.2041108	Barro's Pizza	4b59160cf964a520d67b28e3	33.66434131	-112.2018982	1896	Pizza Place	1056	267	6	8
13	33.647406	-112.2041108	The Melting Pot	4b46c67ef964a520132826e3	33.66241	-112.18787	2248	Restaurant	1361	824	12	8.3
13	33.647406	-112.2041108	Old Chicago Pasta & Pizza	4a569b81f964a52085b51fe3	33.63848966	-112.1817398	2298	Pizza Place	5578	1412	33	8.3
13	33.647406	-112.2041108	Tailgaters Bar and Grill	4bc00e3a461576b012bf7932	33.63909936	-112.1901562	1589	Bar	2467	824	16	7.7
13	33.647406	-112.2041108	Teavana	4e45c433d164155c0ddcc4e3	33.64209385	-112.2254112	2060	Tea Room	402	188	4	8.1
13	33.647406	-112.2041108	Cucina Tagliani	4b8d3b4bf964a520cbee32e3	33.64016273	-112.1860171	1860	Italian Restaurant	1187	627	16	7.9
14	33.22569409	-111.6357579	Aaron's Queen Creek	4bf840205efe2d7f78696a34	33.24801	-111.62566	2656	Furniture / Home Store	3509	2151	57	9
14	33.22569409	-111.6357579	Sushi Creek	4b78820ff964a520f0d22ee3	33.24999335	-111.6327947	2718	Sushi Restaurant	1523	392	27	8.8
14	33.22569409	-111.6357579	San Tan Flat	4ac5d631f964a52079b220e3	33.2007193	-111.6325373	2796	Steakhouse	3863	1738	40	8.8
14	33.22569409	-111.6357579	Chipotle Mexican Grill	4b476dd6f964a520bd3126e3	33.2559868	-111.6390324	3385	Mexican Restaurant	1905	540	5	9
14	33.22569409	-111.6357579	The Villages at Queen Creek	4d73dcc4e87888bfa99e7989	33.23865163	-111.6287756	1582	Playground	1371	121	3	8
14	33.22569409	-111.6357579	Firehouse Subs	5270205311d235916cb6186d	33.25470769	-111.633442	3236	Sandwich Place	122	62	4	8.6
14	33.22569409	-111.6357579	Kohl's	4ac91442f964a5207ebe20e3	33.257176	-111.642639	3562	Department Store	1821	567	5	8.7
14	33.22569409	-111.6357579	Queen Creek Marketplace	4c05a91e70839521a30b7bce	33.25399694	-111.6401542	3177	Shopping Mall	2523	460	3	8.5
14	33.22569409	-111.6357579	Uncle Bear's Grill & Tap	4aac636af964a520c05d20e3	33.25014794	-111.627735	2822	Bar	4865	1149	36	8.3
14	33.22569409	-111.6357579	The Bistro	53a1e008498e9e4b59a02e5f	33.241692	-111.633875	1789	Bistro	68	34	3	8
14	33.22569409	-111.6357579	Desert Mountain Park	4bdf6b010ee3a593f23c34b0	33.24761148	-111.6495981	2759	Baseball Field	923	292	2	8.3
14	33.22569409	-111.6357579	Cost Plus World Market	4c5f43f254ac0f47bb1ab321	33.25491438	-111.642048	3305	Furniture / Home Store	42	32	0	8.3
14	33.22569409	-111.6357579	BevMo!	4b31826af964a520320825e3	33.2565604	-111.6396302	3454	Wine Shop	1052	497	6	8.4
14	33.22569409	-111.6357579	Queen Creek Olive Mill	5728db25498e6e9c4774d5c3	33.22098502	-111.5833161	4911	Italian Restaurant	158	139	5	9.1
14	33.22569409	-111.6357579	The Deli	4af1dbcaf964a520d7e321e3	33.2125793	-111.67525	3956	Deli / Bodega	734	330	20	8.4
14	33.22569409	-111.6357579	In-N-Out Burger	52ebd7c2498e7b01c6d84073	33.25870617	-111.6401483	3697	Burger Joint	411	234	8	8.3
14	33.22569409	-111.6357579	Costa Vida	4b20418af964a520742f24e3	33.249897	-111.6259372	2845	Mexican Restaurant	807	296	14	8
14	33.22569409	-111.6357579	San Tan Mountain Regional Park	4e428baa887719193969c391	33.19025123	-111.6581453	4462	Trail	348	129	4	8.6
14	33.22569409	-111.6357579	Harkins Queen Creek 14	54ed48d4498e2758769deaa0	33.25879652	-111.6420581	3731	Movie Theater	648	164	4	8.3
14	33.22569409	-111.6357579	Kneaders Bakery & Cafe	538e5c6d498ece9c7e081095	33.25000741	-111.6269548	2827	Bakery	92	49	3	8
14	33.22569409	-111.6357579	CVS/pharmacy	4d0171627212b60c1871d4bf	33.24790127	-111.6257612	2641	Pharmacy	618	176	0	7.9
14	33.22569409	-111.6357579	Schnepf Farms	4acfc226f964a520cad520e3	33.22414064	-111.5906755	4201	Farm	2054	1628	25	8.3
14	33.22569409	-111.6357579	Olive Garden	4d2b9120b818a35df6eeb08a	33.25367797	-111.6383878	3124	Italian Restaurant	2216	867	33	7.9
14	33.22569409	-111.6357579	Smashburger	52141e3a11d24e6532047125	33.25582785	-111.6387917	3366	Burger Joint	509	273	16	7.9
14	33.22569409	-111.6357579	PetSmart	4acee7a8f964a52007d220e3	33.257232	-111.639253	3525	Pet Store	1516	348	8	7.9
14	33.22569409	-111.6357579	Ulta Beauty	4bb2668435f0c9b62a39bb83	33.25658514	-111.6422502	3491	Salon / Barbershop	424	168	1	7.8
14	33.22569409	-111.6357579	Starbucks	571554ae498e8e66103384c1	33.25659	-111.638035	3445	Coffee Shop	378	49	0	7.8
14	33.22569409	-111.6357579	San Tan Mountain Regional Park	4e70c258a8098087a03d8589	33.16804233	-111.6356069	6417	Trail	849	379	8	8.8
14	33.22569409	-111.6357579	Paradise Bakery & Cafe	4c80463cd92ea093649e3672	33.25600508	-111.6389722	3387	American Restaurant	1351	569	13	7.7
14	33.22569409	-111.6357579	Baci Italian Bistro	4cf9a0affeec6dcbd3773a36	33.27819568	-111.642978	5882	Italian Restaurant	767	379	26	8.5
14	33.22569409	-111.6357579	Baskin-Robbins	4f997b4dd4f21823bb1f4ed5	33.25020549	-111.6277758	2827	Ice Cream Shop	383	214	4	7.6
14	33.22569409	-111.6357579	Circle Cross Ranch	4be5e868cf200f47f4ec133c	33.20540014	-111.5795956	5697	Farm	2096	177	2	8.2
14	33.22569409	-111.6357579	Chick-fil-A Queen Creek	4b19cb31f964a52049e423e3	33.26007004	-111.6423392	3875	Fast Food Restaurant	1553	523	13	7.7
14	33.22569409	-111.6357579	Queen Creek Cafe & Sports Grill	4ba97368f964a520fa273ae3	33.24826696	-111.6349024	2514	American Restaurant	3220	241	4	7.5
14	33.22569409	-111.6357579	Trilogy Golf Club at Power Ranch	4c5afbdb67ac0f47e50f084c	33.25971897	-111.6940928	6621	Golf Course	741	338	5	8.6
14	33.22569409	-111.6357579	Oregano's Pizza Bistro	5627e4f3498ea72966d85741	33.25365627	-111.637208	3115	Pizza Place	120	84	1	7.5
14	33.22569409	-111.6357579	Casa De Mina	505f79e1e4b00e4386f1e707	33.21431732	-111.6863632	4879	Mexican Restaurant	257	124	9	7.9
14	33.22569409	-111.6357579	Cost Plus World Market	4aedf832f964a520c3d021e3	33.254887	-111.6419291	3300	Wine Bar	573	239	2	7.6
14	33.22569409	-111.6357579	Massage Envy - Queen Creek	4b5229aaf964a5209c6c27e3	33.252367	-111.638244	2978	Spa	392	108	5	7.5
14	33.22569409	-111.6357579	Serrano's Mexican Restaurant	4be9c5f0246fb7130ad3abdf	33.24270158	-111.6339766	1900	Mexican Restaurant	1106	480	11	7.3
14	33.22569409	-111.6357579	Diamond Dot Market	4ce83c4cf8653704e041afc4	33.212564	-111.6855836	4864	Mexican Restaurant	222	79	3	7.8
14	33.22569409	-111.6357579	San Tan Heights Park	4d51dfedbd6ff04d6c41f60c	33.17780345	-111.5985008	6361	Park	458	92	0	8.2
14	33.22569409	-111.6357579	Starbucks	4ba145e5f964a52017a837e3	33.25437565	-111.6416505	3239	Coffee Shop	488	185	2	7.5
14	33.22569409	-111.6357579	Iron Chef	4b9994bff964a5203f8535e3	33.23359822	-111.6870826	4859	Asian Restaurant	231	91	5	7.8
14	33.22569409	-111.6357579	Teds Shooting Range	4e7ca383cc3f1ea01cc33c96	33.28197598	-111.6808526	7541	Sporting Goods Shop	427	229	7	8.6
14	33.22569409	-111.6357579	Buddyz	52c0ce8b498e687489b5638f	33.21178062	-111.6845906	4804	Pizza Place	138	73	10	7.8
14	33.22569409	-111.6357579	Bed Bath & Beyond	4b2550d5f964a520dc6f24e3	33.255188	-111.6419523	3333	Furniture / Home Store	399	216	1	7.5
14	33.22569409	-111.6357579	Schnepf Farm And Country Store	4d55637da05c37049d15b887	33.22454413	-111.5905649	4210	Theme Park	615	519	15	7.6
14	33.22569409	-111.6357579	Bar Vinedo	54dbbb0d498e613514edb694	33.28503791	-111.6845789	8018	Restaurant	121	52	5	8.8
14	33.22569409	-111.6357579	Starbucks	4fc94576d4f24895b4467286	33.24901496	-111.6283173	2686	Coffee Shop	6	5	0	7.3
15	33.55294125	-112.1025355	Bookmans	4a9586d9f964a520832320e3	33.5540561	-112.101059	184	Bookstore	5388	1928	45	8.7
15	33.55294125	-112.1025355	Las Glorias Mexican Food	4dfe3f79183806202654a639	33.55249047	-112.0991226	320	Mexican Restaurant	931	375	22	8.1
15	33.55294125	-112.1025355	Akai Hana Sushi & Grill	4aa01cf7f964a5205a3e20e3	33.55443336	-112.1109874	801	Sushi Restaurant	1874	636	28	8.6
15	33.55294125	-112.1025355	Sprouts Farmers Market	4aa54800f964a520d64720e3	33.55457468	-112.1010214	229	Grocery Store	3279	972	17	7.8
15	33.55294125	-112.1025355	Los Compadres	4b65d39df964a52053022be3	33.554165	-112.109833	690	Mexican Restaurant	991	331	9	8
15	33.55294125	-112.1025355	Bobby Q	4b302880f964a52013f724e3	33.5610343	-112.1158719	1530	BBQ Joint	5522	3136	98	9.1
15	33.55294125	-112.1025355	Royal Palm Park	4ce3661f748d6ea8ccd4ca50	33.55824012	-112.0901978	1287	Park	1169	227	8	8
15	33.55294125	-112.1025355	QuikTrip	4ae726bff964a520e5a821e3	33.53829426	-112.1018938	1631	Convenience Store	1882	619	6	8.2
15	33.55294125	-112.1025355	Einstein Bros Bagels	4b592214f964a520417e28e3	33.55392146	-112.0982411	413	Bagel Shop	1859	574	9	7.4
15	33.55294125	-112.1025355	Mr Sushi	4bbf8670abf495216acabd93	33.55440673	-112.1109911	801	Asian Restaurant	521	183	9	7.6
15	33.55294125	-112.1025355	Dunkin' Donuts	4bbf85ecf8219c74b91fb010	33.5528582	-112.1010438	138	Donut Shop	1783	540	10	7.2
15	33.55294125	-112.1025355	LA Fitness	4bc81d3315a7ef3b95987ada	33.55436551	-112.1062485	379	Gym / Fitness Center	7980	658	20	7.2
15	33.55294125	-112.1025355	Baskin-Robbins	4b9c67cff964a5204c6636e3	33.5659111	-112.0992029	1476	Ice Cream Shop	388	228	3	7.7
15	33.55294125	-112.1025355	Starbucks	574c5c53498e984fddfca9d6	33.553386	-112.109684	665	Coffee Shop	207	87	3	7.2
15	33.55294125	-112.1025355	murphy bridle path	4b4cbc51f964a52076bc26e3	33.55176375	-112.0737919	2669	Trail	1194	124	3	8.4
15	33.55294125	-112.1025355	First Watch - N. Black Canyon Hwy	4b7d9ee5f964a5204dca2fe3	33.57458796	-112.1162933	2726	Breakfast Spot	1218	663	18	8.5
15	33.55294125	-112.1025355	Timo Wine Bar	4e824639f5b98f5bc47eee4e	33.56512177	-112.0736353	3004	Wine Bar	1376	601	29	9.1
15	33.55294125	-112.1025355	Fajitas: A Sizzlin' Celebration	4a68b323f964a520d8ca1fe3	33.57625474	-112.1164366	2897	Mexican Restaurant	4206	1806	61	8.7
15	33.55294125	-112.1025355	Lenny's Burger Shop	4aff5de3f964a520d53722e3	33.53841284	-112.1144048	1956	Burger Joint	1161	620	28	7.7
15	33.55294125	-112.1025355	Tim Finnegan's Irish Pub	4ad3b2ecf964a520b7e520e3	33.56914649	-112.1204303	2451	Pub	3771	1376	44	8.1
15	33.55294125	-112.1025355	Thai Lotus	517b25e8498ef2a2f2dd3493	33.539599	-112.099292	1515	Thai Restaurant	253	105	10	7.4
15	33.55294125	-112.1025355	Romanelli's	4a89b5c6f964a520c50820e3	33.5671944	-112.133234	3259	Italian Restaurant	503	289	21	8.7
15	33.55294125	-112.1025355	Via De Los Santos	4a5e3679f964a5202cbe1fe3	33.56942799	-112.0741004	3213	Mexican Restaurant	1968	901	25	8.6
15	33.55294125	-112.1025355	Texas Roadhouse	4e45b4627d8b91a065855eb5	33.578693	-112.11831	3218	Steakhouse	3094	1716	42	8.6
15	33.55294125	-112.1025355	Mi Pueblo	4bad0a9bf964a52090273be3	33.57412354	-112.1256757	3188	Mexican Restaurant	898	314	18	8.5
15	33.55294125	-112.1025355	Castles N' Coasters	4ada74daf964a520c02221e3	33.57261569	-112.1187615	2657	Theme Park	4506	3148	37	8
15	33.55294125	-112.1025355	Paquime Street Food of Mexico	5339cba7498ec197e4b5c06a	33.567578	-112.073019	3186	Mexican Restaurant	228	114	16	8.5
15	33.55294125	-112.1025355	Spoke & Wheel	51301181e4b0772803927aa9	33.56112142	-112.0737045	2825	American Restaurant	1194	477	19	8.1
15	33.55294125	-112.1025355	Filiberto's	504593e1e4b0872e58e4a15d	33.53826506	-112.0965552	1725	Mexican Restaurant	320	127	4	7.4
15	33.55294125	-112.1025355	Grinder's Coffee Co.	4b4203f0f964a52082cb25e3	33.5674025	-112.0730001	3177	Coffee Shop	741	279	10	8.4
15	33.55294125	-112.1025355	Washington Dog Park	4bdd90a1b0f5c928438a4ce3	33.53220996	-112.1044321	2314	Dog Run	1891	348	11	7.7
15	33.55294125	-112.1025355	Arizona Humane Society	4bdcc6e43904a59396bc4f9e	33.57066984	-112.0898194	2299	Animal Shelter	2194	598	13	7.6
15	33.55294125	-112.1025355	Barnes & Noble	4b103071f964a520dc6a23e3	33.58061188	-112.1214375	3544	Bookstore	2137	1084	11	8.8
15	33.55294125	-112.1025355	Central Farmer's Market	4e873ad002d5aab4cf6f7141	33.55251337	-112.0728138	2757	Food	1059	302	10	7.9
15	33.55294125	-112.1025355	Fuddruckers	4b477cfdf964a520c33326e3	33.56713036	-112.1163333	2032	Burger Joint	1906	1136	22	7.5
15	33.55294125	-112.1025355	Popeye's Louisiana Kitchen	54ea6a3f498e1444e5c804b6	33.56752915	-112.0742984	3081	Fast Food Restaurant	93	50	0	8.2
15	33.55294125	-112.1025355	"""CYPHERS"" The Center for Urban Arts"	4ee8d90c77c83054d92c20ff	33.57017235	-112.1201625	2520	Dance Studio	1069	89	10	7.8
15	33.55294125	-112.1025355	Restaurant Atoyac Estilo Oaxaca	536447c6498e7fb0e4033b6d	33.538898	-112.098699	1603	Taco Place	114	65	2	7.3
15	33.55294125	-112.1025355	Rose Mofford Dog Park	4d03b9f037036dcb2df70bfb	33.5730202	-112.1115754	2387	Dog Run	907	240	10	7.7
15	33.55294125	-112.1025355	In-N-Out Burger	4d5b34031287a09346901d56	33.58219789	-112.1205854	3661	Fast Food Restaurant	6218	2893	34	8.9
15	33.55294125	-112.1025355	Sweet Tomatoes	4b65267cf964a5207be62ae3	33.57796177	-112.1162037	3060	Salad Place	2372	1163	15	8.1
15	33.55294125	-112.1025355	Olive Garden	4b4e8298f964a5200ff026e3	33.58029	-112.11881	3398	Italian Restaurant	3956	2244	31	8.4
15	33.55294125	-112.1025355	Greektown	413ba880f964a520801b1fe3	33.561702	-112.0649837	3617	Greek Restaurant	228	166	13	8.7
15	33.55294125	-112.1025355	North Mountain Brewing Company	50df1449b0edbc5a8ad7be41	33.56798567	-112.0660519	3776	Brewery	2373	950	44	9
15	33.55294125	-112.1025355	El Rancho Market	4c2ccb098abca593803d0220	33.56629518	-112.0982959	1537	Grocery Store	624	280	9	7.2
15	33.55294125	-112.1025355	Karl's Quality Bakery	534589a1498ed1ab2a62c538	33.566519	-112.0729494	3133	Bakery	71	49	4	8
15	33.55294125	-112.1025355	Halo-Halo Kitchen	4c4352c3ce54e21e1dee0d1a	33.566973	-112.135773	3456	Asian Restaurant	777	330	9	8.3
15	33.55294125	-112.1025355	Red Lobster	4b215337f964a5202c3a24e3	33.57905161	-112.1221733	3430	Seafood Restaurant	1828	1135	22	8.3
15	33.55294125	-112.1025355	Rose Mofford Sports Complex	4b9bcee8f964a520b42736e3	33.57520677	-112.1120237	2630	Athletics & Sports	2412	675	10	7.7
15	33.55294125	-112.1025355	Outback Steakhouse	4b4cf495f964a5206cc526e3	33.57515	-112.116211	2778	Steakhouse	2059	1215	16	7.7
16	33.26927945	-111.8479402	Sprouts Farmers Market	4b492874f964a5202e6826e3	33.26464617	-111.8566533	961	Farmers Market	2588	702	8	8.7
16	33.26927945	-111.8479402	HomeGoods	4bc1289e2a89ef3bbaf6f188	33.26436736	-111.8564073	959	Furniture / Home Store	930	425	3	8.6
16	33.26927945	-111.8479402	Pitta Souvli	4a73b8e7f964a5204cdd1fe3	33.27709973	-111.86045	1453	Mediterranean Restaurant	785	321	23	8.9
16	33.26927945	-111.8479402	QuikTrip	4d76d06ad065a35d53555bec	33.27616748	-111.8423757	925	Convenience Store	4577	859	18	8.3
16	33.26927945	-111.8479402	Smashburger	55308047498eb8e7167f702e	33.263479	-111.857659	1111	Burger Joint	154	64	0	8.3
16	33.26927945	-111.8479402	Carlo & Emilie's Gourmet Deli	54a1f876498eaaf395af06bf	33.27473941	-111.8599705	1274	Deli / Bodega	80	49	5	8.4
16	33.26927945	-111.8479402	Keegan's Grill	4b2fc9e5f964a520f5ef24e3	33.26141434	-111.8611641	1510	Pub	1530	529	26	8.6
16	33.26927945	-111.8479402	WinCo Foods	54f88a10498e15fb4642bc62	33.28560217	-111.8454033	1832	Discount Store	1138	160	0	9
16	33.26927945	-111.8479402	Peter Piper Pizza	4b6cc50bf964a52029532ce3	33.26311262	-111.8562502	1034	Pizza Place	567	336	4	8.1
16	33.26927945	-111.8479402	Pei Wei	4ab3e391f964a520f06e20e3	33.26124391	-111.8605611	1476	Asian Restaurant	2855	941	15	8.4
16	33.26927945	-111.8479402	Chipotle Mexican Grill	4bd73fb60b779c743ac104a0	33.26395336	-111.8574286	1063	Mexican Restaurant	2787	796	15	8
16	33.26927945	-111.8479402	Tumbleweed Park	4b76d6dcf964a52019632ee3	33.27483898	-111.8308476	1706	Park	2913	1367	11	8.5
16	33.26927945	-111.8479402	Tumbleweed Recreation Center	4afa26bdf964a520141722e3	33.27562314	-111.8290427	1895	Recreation Center	4463	768	7	8.4
16	33.26927945	-111.8479402	Cold Stone Creamery	4bc140edf8219c748433b310	33.26381863	-111.8565529	1006	Ice Cream Shop	233	152	0	7.8
16	33.26927945	-111.8479402	Shoppers Supply	51911f90498e4c03b3a02e9b	33.26333013	-111.8611233	1394	Pet Store	233	140	3	8
16	33.26927945	-111.8479402	Mikado Sushi	4b86d180f964a520779f31e3	33.26132	-111.8567194	1205	Sushi Restaurant	1159	375	18	7.8
16	33.26927945	-111.8479402	GRAZ Kitchen Fresh	5433567e498ecb8ef9b09138	33.29081922	-111.8410075	2483	Sandwich Place	127	42	2	8.8
16	33.26927945	-111.8479402	The Casual Pint Ocotillo	57b1e6f9498e8a343f4bd2be	33.26145846	-111.8617056	1549	Beer Bar	144	65	3	8
16	33.26927945	-111.8479402	Planet Fitness	4fb2ab3ce4b04fafbcb38780	33.28542566	-111.8428764	1858	Gym / Fitness Center	4034	340	28	8.1
16	33.26927945	-111.8479402	Cyprus Grill of Chandler	4d781b0c9e57a0933a17bf2b	33.26077008	-111.8598716	1459	Greek Restaurant	440	207	8	7.8
16	33.26927945	-111.8479402	Sonic Drive In	532e6207498eed2c78691f89	33.27542102	-111.8422127	866	Fast Food Restaurant	467	135	6	7.6
